{"businesses": [{"id": "0k6dQ0Ec2dVo1eZ_tPgr0Q", "alias": "juicy-cube-new-york", "name": "Juicy Cube", "image_url": "https://s3-media4.fl.yelpcdn.com/bphoto/jzmvX0L9niMnEd5VkSQcbw/o.jpg", "is_closed": false, "url": "https://www.yelp.com/biz/juicy-cube-new-york?adjust_creative=pDRNOeZqz2kRCxLFBJobsA&utm_campaign=yelp_api_v3&utm_medium=api_v3_business_search&utm_source=pDRNOeZqz2kRCxLFBJobsA", "review_count": 208, "categories": [{"alias": "coffee", "title": "Coffee & Tea"}, {"alias": "juicebars", "title": "Juice Bars & Smoothies"}, {"alias": "bubbletea", "title": "Bubble Tea"}], "rating": 4.0, "coordinates": {"latitude": 40.7602119445801, "longitude": -73.9696807861328}, "transactions": ["pickup", "delivery"], "price": "$$", "location": {"address1": "674 Lexington Ave", "address2": "", "address3": "", "city": "New York", "zip_code": "10022", "country": "US", "state": "NY", "display_address": ["674 Lexington Ave", "New York, NY 10022"]}, "phone": "+12128882188", "display_phone": "(212) 888-2188", "distance": 113.02340457456086}, {"id": "jYjJNB9qlmd6dbYZBaDjfw", "alias": "biao-sugar-new-york", "name": "BIAO Sugar", "image_url": "https://s3-media4.fl.yelpcdn.com/bphoto/oK7g4v2RjF7SiKxdG6vsNg/o.jpg", "is_closed": false, "url": "https://www.yelp.com/biz/biao-sugar-new-york?adjust_creative=pDRNOeZqz2kRCxLFBJobsA&utm_campaign=yelp_api_v3&utm_medium=api_v3_business_search&utm_source=pDRNOeZqz2kRCxLFBJobsA", "review_count": 117, "categories": [{"alias": "bubbletea", "title": "Bubble Tea"}], "rating": 4.0, "coordinates": {"latitude": 40.7483, "longitude": -73.98847}, "transactions": ["pickup", "delivery"], "price": "$", "location": {"address1": "1271 Broadway", "address2": null, "address3": null, "city": "New York", "zip_code": "10001", "country": "US", "state": "NY", "display_address": ["1271 Broadway", "New York, NY 10001"]}, "phone": "+13476301794", "display_phone": "(347) 630-1794", "distance": 2012.7882575579915}, {"id": "5EdSpKfMvIV0rS-CTEcEWw", "alias": "coco-fresh-tea-and-juice-new-york-2", "name": "CoCo Fresh Tea & Juice", "image_url": "https://s3-media3.fl.yelpcdn.com/bphoto/Ie5sZvq8VUnlb6UrbmfYPw/o.jpg", "is_closed": false, "url": "https://www.yelp.com/biz/coco-fresh-tea-and-juice-new-york-2?adjust_creative=pDRNOeZqz2kRCxLFBJobsA&utm_campaign=yelp_api_v3&utm_medium=api_v3_business_search&utm_source=pDRNOeZqz2kRCxLFBJobsA", "review_count": 417, "categories": [{"alias": "coffee", "title": "Coffee & Tea"}, {"alias": "juicebars", "title": "Juice Bars & Smoothies"}, {"alias": "bubbletea", "title": "Bubble Tea"}], "rating": 4.0, "coordinates": {"latitude": 40.753285959363, "longitude": -73.9743315428495}, "transactions": [], "price": "$", "location": {"address1": "129 E 45th St", "address2": "", "address3": "", "city": "New York", "zip_code": "10017", "country": "US", "state": "NY", "display_address": ["129 E 45th St", "New York, NY 10017"]}, "phone": "+12125188808", "display_phone": "(212) 518-8808", "distance": 779.3668126188152}, {"id": "W2B8KfNllQqIv_TyfCv85Q", "alias": "gong-cha-new-york-9", "name": "Gong Cha", "image_url": "https://s3-media1.fl.yelpcdn.com/bphoto/NxsPXGHpWD15tmh0bX6BTA/o.jpg", "is_closed": false, "url": "https://www.yelp.com/biz/gong-cha-new-york-9?adjust_creative=pDRNOeZqz2kRCxLFBJobsA&utm_campaign=yelp_api_v3&utm_medium=api_v3_business_search&utm_source=pDRNOeZqz2kRCxLFBJobsA", "review_count": 406, "categories": [{"alias": "bubbletea", "title": "Bubble Tea"}], "rating": 4.0, "coordinates": {"latitude": 40.7523752091444, "longitude": -73.98557536304}, "transactions": ["pickup", "delivery"], "price": "$", "location": {"address1": "75 W 38th St", "address2": null, "address3": "", "city": "New York", "zip_code": "10018", "country": "US", "state": "NY", "display_address": ["75 W 38th St", "New York, NY 10018"]}, "phone": "+12123982716", "display_phone": "(212) 398-2716", "distance": 1560.3263621423325}, {"id": "jgpD4KovcJsWXTbhE5ytHg", "alias": "gong-cha-new-york-31", "name": "Gong Cha", "image_url": "https://s3-media2.fl.yelpcdn.com/bphoto/Fqkq6w2Mq_c6gQgCfnsTSQ/o.jpg", "is_closed": false, "url": "https://www.yelp.com/biz/gong-cha-new-york-31?adjust_creative=pDRNOeZqz2kRCxLFBJobsA&utm_campaign=yelp_api_v3&utm_medium=api_v3_business_search&utm_source=pDRNOeZqz2kRCxLFBJobsA", "review_count": 16, "categories": [{"alias": "bubbletea", "title": "Bubble Tea"}], "rating": 5.0, "coordinates": {"latitude": 40.767984, "longitude": -73.963819}, "transactions": ["pickup", "delivery"], "location": {"address1": "925 Lexington Ave", "address2": null, "address3": "", "city": "New York", "zip_code": "10065", "country": "US", "state": "NY", "display_address": ["925 Lexington Ave", "New York, NY 10065"]}, "phone": "+16468761020", "display_phone": "(646) 876-1020", "distance": 1082.2661774826847}, {"id": "Z_sD_c1laCk4ek0RkeWf0A", "alias": "gong-cha-new-york-23", "name": "Gong Cha", "image_url": "https://s3-media2.fl.yelpcdn.com/bphoto/grWBQXYAdQqaYLP_YtOoWQ/o.jpg", "is_closed": false, "url": "https://www.yelp.com/biz/gong-cha-new-york-23?adjust_creative=pDRNOeZqz2kRCxLFBJobsA&utm_campaign=yelp_api_v3&utm_medium=api_v3_business_search&utm_source=pDRNOeZqz2kRCxLFBJobsA", "review_count": 91, "categories": [{"alias": "bubbletea", "title": "Bubble Tea"}], "rating": 4.0, "coordinates": {"latitude": 40.75214, "longitude": -73.97394}, "transactions": ["pickup", "delivery"], "price": "$", "location": {"address1": "160 E 44th St", "address2": "", "address3": null, "city": "New York", "zip_code": "10017", "country": "US", "state": "NY", "display_address": ["160 E 44th St", "New York, NY 10017"]}, "phone": "+16467073375", "display_phone": "(646) 707-3375", "distance": 880.747351758842}, {"id": "FKjAriOhhGZJSlkqrk8zWg", "alias": "i-milky-\u6c90\u767d-new-york", "name": "I\u2019Milky \u6c90\u767d", "image_url": "https://s3-media4.fl.yelpcdn.com/bphoto/3sHnWf2QTlcXfxvb6L8HWA/o.jpg", "is_closed": false, "url": "https://www.yelp.com/biz/i-milky-%E6%B2%90%E7%99%BD-new-york?adjust_creative=pDRNOeZqz2kRCxLFBJobsA&utm_campaign=yelp_api_v3&utm_medium=api_v3_business_search&utm_source=pDRNOeZqz2kRCxLFBJobsA", "review_count": 87, "categories": [{"alias": "bubbletea", "title": "Bubble Tea"}, {"alias": "coffee", "title": "Coffee & Tea"}, {"alias": "taiwanese", "title": "Taiwanese"}], "rating": 4.5, "coordinates": {"latitude": 40.7513413, "longitude": -73.9864468}, "transactions": [], "price": "$", "location": {"address1": "992 6th Ave", "address2": "", "address3": null, "city": "New York", "zip_code": "10018", "country": "US", "state": "NY", "display_address": ["992 6th Ave", "New York, NY 10018"]}, "phone": "+12122396712", "display_phone": "(212) 239-6712", "distance": 1660.5446616727816}, {"id": "iG6_dHAJcnz9-0CLjceHWQ", "alias": "kung-fu-tea-new-york-17", "name": "Kung Fu Tea", "image_url": "https://s3-media3.fl.yelpcdn.com/bphoto/-BAHS8bpff022uHJM0AL5A/o.jpg", "is_closed": false, "url": "https://www.yelp.com/biz/kung-fu-tea-new-york-17?adjust_creative=pDRNOeZqz2kRCxLFBJobsA&utm_campaign=yelp_api_v3&utm_medium=api_v3_business_search&utm_source=pDRNOeZqz2kRCxLFBJobsA", "review_count": 105, "categories": [{"alias": "bubbletea", "title": "Bubble Tea"}, {"alias": "coffee", "title": "Coffee & Tea"}, {"alias": "juicebars", "title": "Juice Bars & Smoothies"}], "rating": 4.0, "coordinates": {"latitude": 40.764001, "longitude": -73.959104}, "transactions": [], "price": "$", "location": {"address1": "1219 1st Ave", "address2": "", "address3": "", "city": "New York", "zip_code": "10065", "country": "US", "state": "NY", "display_address": ["1219 1st Ave", "New York, NY 10065"]}, "phone": "+19176756987", "display_phone": "(917) 675-6987", "distance": 1017.4477634074249}, {"id": "zgjELaaa1JQMmmObrxFB6Q", "alias": "modern-tea-shop-new-york", "name": "Modern Tea Shop", "image_url": "https://s3-media2.fl.yelpcdn.com/bphoto/A0PSxhWENxfQ2JTpjOv-LA/o.jpg", "is_closed": false, "url": "https://www.yelp.com/biz/modern-tea-shop-new-york?adjust_creative=pDRNOeZqz2kRCxLFBJobsA&utm_campaign=yelp_api_v3&utm_medium=api_v3_business_search&utm_source=pDRNOeZqz2kRCxLFBJobsA", "review_count": 45, "categories": [{"alias": "bubbletea", "title": "Bubble Tea"}], "rating": 4.5, "coordinates": {"latitude": 40.76178, "longitude": -73.9871}, "transactions": ["pickup", "delivery"], "location": {"address1": "300 W 49th St", "address2": "", "address3": null, "city": "New York", "zip_code": "10019", "country": "US", "state": "NY", "display_address": ["300 W 49th St", "New York, NY 10019"]}, "phone": "+16468501333", "display_phone": "(646) 850-1333", "distance": 1520.6405365659266}, {"id": "EC27zM2Gj9L_pUMqjfiWnQ", "alias": "hawa-smoothie-and-bubble-tea-new-york-3", "name": "Hawa smoothie & Bubble tea", "image_url": "https://s3-media3.fl.yelpcdn.com/bphoto/0_A01NgU1pSTLR-0EPJrNg/o.jpg", "is_closed": false, "url": "https://www.yelp.com/biz/hawa-smoothie-and-bubble-tea-new-york-3?adjust_creative=pDRNOeZqz2kRCxLFBJobsA&utm_campaign=yelp_api_v3&utm_medium=api_v3_business_search&utm_source=pDRNOeZqz2kRCxLFBJobsA", "review_count": 3, "categories": [{"alias": "bubbletea", "title": "Bubble Tea"}, {"alias": "juicebars", "title": "Juice Bars & Smoothies"}], "rating": 5.0, "coordinates": {"latitude": 40.76164, "longitude": -73.96382}, "transactions": ["pickup"], "location": {"address1": "1151 2nd Ave", "address2": null, "address3": "", "city": "New York", "zip_code": "10065", "country": "US", "state": "NY", "display_address": ["1151 2nd Ave", "New York, NY 10065"]}, "phone": "+16464787547", "display_phone": "(646) 478-7547", "distance": 544.2857792757958}, {"id": "LDScBEu3splSQlhGBEH2hg", "alias": "bao-by-kaya-new-york-4", "name": "Bao by Kaya", "image_url": "https://s3-media4.fl.yelpcdn.com/bphoto/kut0H7uCV8_JcrpXtSrf3A/o.jpg", "is_closed": false, "url": "https://www.yelp.com/biz/bao-by-kaya-new-york-4?adjust_creative=pDRNOeZqz2kRCxLFBJobsA&utm_campaign=yelp_api_v3&utm_medium=api_v3_business_search&utm_source=pDRNOeZqz2kRCxLFBJobsA", "review_count": 167, "categories": [{"alias": "taiwanese", "title": "Taiwanese"}, {"alias": "coffee", "title": "Coffee & Tea"}, {"alias": "asianfusion", "title": "Asian Fusion"}], "rating": 4.0, "coordinates": {"latitude": 40.7569200941962, "longitude": -73.9723208919168}, "transactions": [], "price": "$", "location": {"address1": "570 Lexington Ave", "address2": "", "address3": null, "city": "New York", "zip_code": "10022", "country": "US", "state": "NY", "display_address": ["570 Lexington Ave", "New York, NY 10022"]}, "phone": "+19294219987", "display_phone": "(929) 421-9987", "distance": 354.53615068983675}, {"id": "3-_-Cg9sufO2z7Jga_ktsg", "alias": "coco-fresh-tea-and-juice-new-york-26", "name": "Coco Fresh Tea & Juice", "image_url": "https://s3-media3.fl.yelpcdn.com/bphoto/Gn9HbOWCilGONaAmX-2xTQ/o.jpg", "is_closed": false, "url": "https://www.yelp.com/biz/coco-fresh-tea-and-juice-new-york-26?adjust_creative=pDRNOeZqz2kRCxLFBJobsA&utm_campaign=yelp_api_v3&utm_medium=api_v3_business_search&utm_source=pDRNOeZqz2kRCxLFBJobsA", "review_count": 10, "categories": [{"alias": "bubbletea", "title": "Bubble Tea"}, {"alias": "juicebars", "title": "Juice Bars & Smoothies"}], "rating": 4.0, "coordinates": {"latitude": 40.77769, "longitude": -73.97983}, "transactions": ["pickup", "delivery"], "price": "$", "location": {"address1": "124 W 72nd St", "address2": "", "address3": null, "city": "New York", "zip_code": "10023", "country": "US", "state": "NY", "display_address": ["124 W 72nd St", "New York, NY 10023"]}, "phone": "+12125950099", "display_phone": "(212) 595-0099", "distance": 2226.8127253231987}, {"id": "L5dPewlTmV-FntJdJ71m1g", "alias": "vivi-bubble-tea-new-york-34", "name": "Vivi Bubble Tea", "image_url": "https://s3-media1.fl.yelpcdn.com/bphoto/jnxQtbUijklWy8MZ4IYbRA/o.jpg", "is_closed": false, "url": "https://www.yelp.com/biz/vivi-bubble-tea-new-york-34?adjust_creative=pDRNOeZqz2kRCxLFBJobsA&utm_campaign=yelp_api_v3&utm_medium=api_v3_business_search&utm_source=pDRNOeZqz2kRCxLFBJobsA", "review_count": 62, "categories": [{"alias": "bubbletea", "title": "Bubble Tea"}], "rating": 3.5, "coordinates": {"latitude": 40.76722, "longitude": -73.95918}, "transactions": [], "price": "$", "location": {"address1": "1324 2nd Ave", "address2": "", "address3": null, "city": "New York", "zip_code": "10021", "country": "US", "state": "NY", "display_address": ["1324 2nd Ave", "New York, NY 10021"]}, "phone": "+16468580710", "display_phone": "(646) 858-0710", "distance": 1239.3597822397155}, {"id": "WHRHK3S1mQc3PmhwsGRvbw", "alias": "bibble-and-sip-new-york-2", "name": "Bibble & Sip", "image_url": "https://s3-media3.fl.yelpcdn.com/bphoto/qvBB2GFH0zE8NFszubO2pg/o.jpg", "is_closed": false, "url": "https://www.yelp.com/biz/bibble-and-sip-new-york-2?adjust_creative=pDRNOeZqz2kRCxLFBJobsA&utm_campaign=yelp_api_v3&utm_medium=api_v3_business_search&utm_source=pDRNOeZqz2kRCxLFBJobsA", "review_count": 4787, "categories": [{"alias": "coffee", "title": "Coffee & Tea"}, {"alias": "bakeries", "title": "Bakeries"}], "rating": 4.5, "coordinates": {"latitude": 40.76282, "longitude": -73.98518}, "transactions": ["pickup", "delivery"], "price": "$", "location": {"address1": "253 W 51st St", "address2": "", "address3": "", "city": "New York", "zip_code": "10019", "country": "US", "state": "NY", "display_address": ["253 W 51st St", "New York, NY 10019"]}, "phone": "+16466495116", "display_phone": "(646) 649-5116", "distance": 1385.6028461021094}, {"id": "GSiyCwjt4nN0_ArECoqe3g", "alias": "ho-ho-t\u00e9-new-york-2", "name": "Ho Ho T\u00e9", "image_url": "https://s3-media2.fl.yelpcdn.com/bphoto/7Sph1E38DeeoXo1SEk3trQ/o.jpg", "is_closed": false, "url": "https://www.yelp.com/biz/ho-ho-t%C3%A9-new-york-2?adjust_creative=pDRNOeZqz2kRCxLFBJobsA&utm_campaign=yelp_api_v3&utm_medium=api_v3_business_search&utm_source=pDRNOeZqz2kRCxLFBJobsA", "review_count": 96, "categories": [{"alias": "bubbletea", "title": "Bubble Tea"}], "rating": 4.0, "coordinates": {"latitude": 40.7614, "longitude": -73.98698}, "transactions": ["pickup", "delivery"], "location": {"address1": "805 8th Ave", "address2": null, "address3": "", "city": "New York", "zip_code": "10019", "country": "US", "state": "NY", "display_address": ["805 8th Ave", "New York, NY 10019"]}, "phone": "", "display_phone": "", "distance": 1504.1616019158705}, {"id": "vu3pG38Wdyr7aFuuJVgqyw", "alias": "vivi-bubble-tea-new-york-9", "name": "ViVi Bubble Tea", "image_url": "https://s3-media3.fl.yelpcdn.com/bphoto/JQoE0D7ClV4b1kJ8mx-PbQ/o.jpg", "is_closed": false, "url": "https://www.yelp.com/biz/vivi-bubble-tea-new-york-9?adjust_creative=pDRNOeZqz2kRCxLFBJobsA&utm_campaign=yelp_api_v3&utm_medium=api_v3_business_search&utm_source=pDRNOeZqz2kRCxLFBJobsA", "review_count": 287, "categories": [{"alias": "bubbletea", "title": "Bubble Tea"}], "rating": 3.5, "coordinates": {"latitude": 40.7593397667085, "longitude": -73.9921604184253}, "transactions": [], "price": "$", "location": {"address1": "607 9th Ave", "address2": "", "address3": "", "city": "New York", "zip_code": "10036", "country": "US", "state": "NY", "display_address": ["607 9th Ave", "New York, NY 10036"]}, "phone": "+12129560288", "display_phone": "(212) 956-0288", "distance": 1916.8616688682323}, {"id": "n1zp9E-wrqUl4M3mrKp_NQ", "alias": "moge-tee-new-york-4", "name": "Moge Tee", "image_url": "https://s3-media1.fl.yelpcdn.com/bphoto/pNhU0zSm_fDMwLSdfh7v3Q/o.jpg", "is_closed": false, "url": "https://www.yelp.com/biz/moge-tee-new-york-4?adjust_creative=pDRNOeZqz2kRCxLFBJobsA&utm_campaign=yelp_api_v3&utm_medium=api_v3_business_search&utm_source=pDRNOeZqz2kRCxLFBJobsA", "review_count": 78, "categories": [{"alias": "bubbletea", "title": "Bubble Tea"}, {"alias": "sushi", "title": "Sushi Bars"}], "rating": 4.0, "coordinates": {"latitude": 40.75538, "longitude": -73.99155}, "transactions": ["pickup", "delivery"], "price": "$", "location": {"address1": "302 West 39th St", "address2": null, "address3": "", "city": "New York", "zip_code": "10018", "country": "US", "state": "NY", "display_address": ["302 West 39th St", "New York, NY 10018"]}, "phone": "+19172620472", "display_phone": "(917) 262-0472", "distance": 1928.0356315063596}, {"id": "PgWJurmDSh8-elGUriZ1UA", "alias": "rabbit-rabbit-tea-new-york", "name": "Rabbit Rabbit Tea", "image_url": "https://s3-media4.fl.yelpcdn.com/bphoto/VFtxaUi6nexW4JyTjVTvkw/o.jpg", "is_closed": false, "url": "https://www.yelp.com/biz/rabbit-rabbit-tea-new-york?adjust_creative=pDRNOeZqz2kRCxLFBJobsA&utm_campaign=yelp_api_v3&utm_medium=api_v3_business_search&utm_source=pDRNOeZqz2kRCxLFBJobsA", "review_count": 119, "categories": [{"alias": "bubbletea", "title": "Bubble Tea"}, {"alias": "juicebars", "title": "Juice Bars & Smoothies"}, {"alias": "taiwanese", "title": "Taiwanese"}], "rating": 4.0, "coordinates": {"latitude": 40.73982, "longitude": -73.98587}, "transactions": ["pickup", "delivery"], "price": "$", "location": {"address1": "110-112 E 23rd St", "address2": "", "address3": null, "city": "New York", "zip_code": "10010", "country": "US", "state": "NY", "display_address": ["110-112 E 23rd St", "New York, NY 10010"]}, "phone": "", "display_phone": "", "distance": 2577.7352324518447}, {"id": "2q9ZFhHXT0nYp6scyrEbCw", "alias": "gong-cha-new-york-11", "name": "Gong Cha", "image_url": "https://s3-media2.fl.yelpcdn.com/bphoto/_DkhLEVOPDNMpRIIFXUvsg/o.jpg", "is_closed": false, "url": "https://www.yelp.com/biz/gong-cha-new-york-11?adjust_creative=pDRNOeZqz2kRCxLFBJobsA&utm_campaign=yelp_api_v3&utm_medium=api_v3_business_search&utm_source=pDRNOeZqz2kRCxLFBJobsA", "review_count": 324, "categories": [{"alias": "bubbletea", "title": "Bubble Tea"}], "rating": 3.0, "coordinates": {"latitude": 40.7474575532982, "longitude": -73.9863477886696}, "transactions": ["pickup", "delivery"], "price": "$", "location": {"address1": "12 W 32nd St", "address2": "", "address3": "", "city": "New York", "zip_code": "10001", "country": "US", "state": "NY", "display_address": ["12 W 32nd St", "New York, NY 10001"]}, "phone": "+12124650852", "display_phone": "(212) 465-0852", "distance": 1935.8086363868863}, {"id": "_QTqGden6FoqfHL_wE8lbw", "alias": "gong-cha-new-york-32", "name": "Gong Cha", "image_url": "https://s3-media3.fl.yelpcdn.com/bphoto/b0cV8oiTh0jCclWokUAG0Q/o.jpg", "is_closed": false, "url": "https://www.yelp.com/biz/gong-cha-new-york-32?adjust_creative=pDRNOeZqz2kRCxLFBJobsA&utm_campaign=yelp_api_v3&utm_medium=api_v3_business_search&utm_source=pDRNOeZqz2kRCxLFBJobsA", "review_count": 18, "categories": [{"alias": "bubbletea", "title": "Bubble Tea"}], "rating": 4.5, "coordinates": {"latitude": 40.7603003092784, "longitude": -73.9845001325011}, "transactions": ["pickup", "delivery"], "price": "$$", "location": {"address1": "1600 Broadway", "address2": "", "address3": null, "city": "New York", "zip_code": "10019", "country": "US", "state": "NY", "display_address": ["1600 Broadway", "New York, NY 10019"]}, "phone": "+12126592513", "display_phone": "(212) 659-2513", "distance": 1277.298829822405}, {"id": "gMVFC--iXd29dM6QTMbp3w", "alias": "yi-fang-taiwan-fruit-tea-long-island-city", "name": "Yi Fang Taiwan Fruit Tea", "image_url": "https://s3-media2.fl.yelpcdn.com/bphoto/0L_9eVJWLpLCM9aLw5tkhw/o.jpg", "is_closed": false, "url": "https://www.yelp.com/biz/yi-fang-taiwan-fruit-tea-long-island-city?adjust_creative=pDRNOeZqz2kRCxLFBJobsA&utm_campaign=yelp_api_v3&utm_medium=api_v3_business_search&utm_source=pDRNOeZqz2kRCxLFBJobsA", "review_count": 72, "categories": [{"alias": "bubbletea", "title": "Bubble Tea"}, {"alias": "tea", "title": "Tea Rooms"}], "rating": 4.0, "coordinates": {"latitude": 40.74782, "longitude": -73.94769}, "transactions": ["pickup", "delivery"], "price": "$", "location": {"address1": "44-68 21st St", "address2": "", "address3": null, "city": "Long Island City", "zip_code": "11101", "country": "US", "state": "NY", "display_address": ["44-68 21st St", "Long Island City, NY 11101"]}, "phone": "+13477384143", "display_phone": "(347) 738-4143", "distance": 2224.2271354003487}, {"id": "hVNjh97zPH6Rs8NuI_rc5A", "alias": "yifang-taiwan-fruit-tea-new-york-7", "name": "Yifang Taiwan Fruit Tea", "image_url": "https://s3-media3.fl.yelpcdn.com/bphoto/SDfI0Ch7JXMOgE8thAECMQ/o.jpg", "is_closed": false, "url": "https://www.yelp.com/biz/yifang-taiwan-fruit-tea-new-york-7?adjust_creative=pDRNOeZqz2kRCxLFBJobsA&utm_campaign=yelp_api_v3&utm_medium=api_v3_business_search&utm_source=pDRNOeZqz2kRCxLFBJobsA", "review_count": 38, "categories": [{"alias": "bubbletea", "title": "Bubble Tea"}], "rating": 3.5, "coordinates": {"latitude": 40.75257, "longitude": -73.98555}, "transactions": ["pickup", "delivery"], "price": "$$", "location": {"address1": "1028 6th Ave", "address2": "", "address3": null, "city": "New York", "zip_code": "10018", "country": "US", "state": "NY", "display_address": ["1028 6th Ave", "New York, NY 10018"]}, "phone": "+16468610657", "display_phone": "(646) 861-0657", "distance": 1543.0599188145297}, {"id": "g-K9RFraEyOoY3IgszBCeQ", "alias": "teazzi-tea-shop-new-york", "name": "Teazzi Tea Shop", "image_url": "https://s3-media2.fl.yelpcdn.com/bphoto/oRPgKtWWDqJ7yN4IhFbF8Q/o.jpg", "is_closed": false, "url": "https://www.yelp.com/biz/teazzi-tea-shop-new-york?adjust_creative=pDRNOeZqz2kRCxLFBJobsA&utm_campaign=yelp_api_v3&utm_medium=api_v3_business_search&utm_source=pDRNOeZqz2kRCxLFBJobsA", "review_count": 109, "categories": [{"alias": "bubbletea", "title": "Bubble Tea"}, {"alias": "tea", "title": "Tea Rooms"}], "rating": 4.0, "coordinates": {"latitude": 40.7371, "longitude": -73.99582}, "transactions": ["pickup", "delivery"], "location": {"address1": "47 W 14th St", "address2": "Ste 3", "address3": "", "city": "New York", "zip_code": "10011", "country": "US", "state": "NY", "display_address": ["47 W 14th St", "Ste 3", "New York, NY 10011"]}, "phone": "+19172681999", "display_phone": "(917) 268-1999", "distance": 3298.400264446586}, {"id": "EbwcxgW1h6ELERU8x3_fSA", "alias": "kung-fu-tea-new-york-25", "name": "Kung Fu Tea", "image_url": "https://s3-media4.fl.yelpcdn.com/bphoto/VWRrupvsZ9QnMq7ri4UXYQ/o.jpg", "is_closed": false, "url": "https://www.yelp.com/biz/kung-fu-tea-new-york-25?adjust_creative=pDRNOeZqz2kRCxLFBJobsA&utm_campaign=yelp_api_v3&utm_medium=api_v3_business_search&utm_source=pDRNOeZqz2kRCxLFBJobsA", "review_count": 59, "categories": [{"alias": "coffee", "title": "Coffee & Tea"}, {"alias": "bubbletea", "title": "Bubble Tea"}, {"alias": "juicebars", "title": "Juice Bars & Smoothies"}], "rating": 4.0, "coordinates": {"latitude": 40.74002, "longitude": -73.98553}, "transactions": [], "price": "$$", "location": {"address1": "115 E 23rd St", "address2": "", "address3": null, "city": "New York", "zip_code": "10010", "country": "US", "state": "NY", "display_address": ["115 E 23rd St", "New York, NY 10010"]}, "phone": "+16464672013", "display_phone": "(646) 467-2013", "distance": 2526.3753358062822}, {"id": "lc8oROJ67VcPqJd33zDvOg", "alias": "tea-magic-new-york-4", "name": "Tea Magic", "image_url": "https://s3-media4.fl.yelpcdn.com/bphoto/GBCCsCdcLU6DhkjacrRYLw/o.jpg", "is_closed": false, "url": "https://www.yelp.com/biz/tea-magic-new-york-4?adjust_creative=pDRNOeZqz2kRCxLFBJobsA&utm_campaign=yelp_api_v3&utm_medium=api_v3_business_search&utm_source=pDRNOeZqz2kRCxLFBJobsA", "review_count": 21, "categories": [{"alias": "bubbletea", "title": "Bubble Tea"}], "rating": 4.0, "coordinates": {"latitude": 40.7793834898764, "longitude": -73.9829937368632}, "transactions": ["pickup", "delivery"], "location": {"address1": "239 W 72nd St", "address2": "", "address3": null, "city": "New York", "zip_code": "10023", "country": "US", "state": "NY", "display_address": ["239 W 72nd St", "New York, NY 10023"]}, "phone": "+12127122227", "display_phone": "(212) 712-2227", "distance": 2517.5644881117173}, {"id": "EGjA37WdNntmKRmYGRZ1WQ", "alias": "tbaar-new-york-12", "name": "TBaar", "image_url": "https://s3-media4.fl.yelpcdn.com/bphoto/7sdkA1a92d5wwysIY2nhMQ/o.jpg", "is_closed": false, "url": "https://www.yelp.com/biz/tbaar-new-york-12?adjust_creative=pDRNOeZqz2kRCxLFBJobsA&utm_campaign=yelp_api_v3&utm_medium=api_v3_business_search&utm_source=pDRNOeZqz2kRCxLFBJobsA", "review_count": 16, "categories": [{"alias": "bubbletea", "title": "Bubble Tea"}, {"alias": "coffee", "title": "Coffee & Tea"}, {"alias": "juicebars", "title": "Juice Bars & Smoothies"}], "rating": 4.5, "coordinates": {"latitude": 40.7503, "longitude": -73.98525}, "transactions": ["pickup", "delivery"], "price": "$", "location": {"address1": "36 W 36th St", "address2": "", "address3": null, "city": "New York", "zip_code": "10018", "country": "US", "state": "NY", "display_address": ["36 W 36th St", "New York, NY 10018"]}, "phone": "+16469829639", "display_phone": "(646) 982-9639", "distance": 1679.9402743597138}, {"id": "tlXKNDgLJoGoiQ1WLesL9Q", "alias": "m\u00f6ge-tee-fifth-ave-new-york-2", "name": "M\u00f6ge Tee - Fifth Ave", "image_url": "https://s3-media4.fl.yelpcdn.com/bphoto/Q1d6KFyyQEuTYeh18LmU0A/o.jpg", "is_closed": false, "url": "https://www.yelp.com/biz/m%C3%B6ge-tee-fifth-ave-new-york-2?adjust_creative=pDRNOeZqz2kRCxLFBJobsA&utm_campaign=yelp_api_v3&utm_medium=api_v3_business_search&utm_source=pDRNOeZqz2kRCxLFBJobsA", "review_count": 21, "categories": [{"alias": "bubbletea", "title": "Bubble Tea"}, {"alias": "coffee", "title": "Coffee & Tea"}], "rating": 4.0, "coordinates": {"latitude": 40.74555, "longitude": -73.986352}, "transactions": ["pickup", "delivery"], "price": "$", "location": {"address1": "275 5th Ave", "address2": "", "address3": null, "city": "New York", "zip_code": "10016", "country": "US", "state": "NY", "display_address": ["275 5th Ave", "New York, NY 10016"]}, "phone": "", "display_phone": "", "distance": 2085.222325134789}, {"id": "0beIplJQlG3_E8A8rsHTyg", "alias": "coco-fresh-tea-and-juice-new-york-12", "name": "CoCo Fresh Tea & Juice", "image_url": "https://s3-media3.fl.yelpcdn.com/bphoto/DFEw1vmq2VnKfXh-x6zbJA/o.jpg", "is_closed": false, "url": "https://www.yelp.com/biz/coco-fresh-tea-and-juice-new-york-12?adjust_creative=pDRNOeZqz2kRCxLFBJobsA&utm_campaign=yelp_api_v3&utm_medium=api_v3_business_search&utm_source=pDRNOeZqz2kRCxLFBJobsA", "review_count": 148, "categories": [{"alias": "coffee", "title": "Coffee & Tea"}, {"alias": "bubbletea", "title": "Bubble Tea"}, {"alias": "juicebars", "title": "Juice Bars & Smoothies"}], "rating": 3.5, "coordinates": {"latitude": 40.75263, "longitude": -73.98719}, "transactions": ["pickup", "delivery"], "price": "$", "location": {"address1": "1384 Broadway", "address2": null, "address3": "", "city": "New York", "zip_code": "10018", "country": "US", "state": "NY", "display_address": ["1384 Broadway", "New York, NY 10018"]}, "phone": "+12123022225", "display_phone": "(212) 302-2225", "distance": 1665.6177400779034}, {"id": "7iutLpnIKgdQgw0M3frdUw", "alias": "hawa-smoothies-and-bubble-tea-new-york-6", "name": "Hawa Smoothies and Bubble Tea", "image_url": "https://s3-media1.fl.yelpcdn.com/bphoto/SxB3P5I0gaawWExnGcvT5w/o.jpg", "is_closed": false, "url": "https://www.yelp.com/biz/hawa-smoothies-and-bubble-tea-new-york-6?adjust_creative=pDRNOeZqz2kRCxLFBJobsA&utm_campaign=yelp_api_v3&utm_medium=api_v3_business_search&utm_source=pDRNOeZqz2kRCxLFBJobsA", "review_count": 27, "categories": [{"alias": "bubbletea", "title": "Bubble Tea"}, {"alias": "juicebars", "title": "Juice Bars & Smoothies"}, {"alias": "acaibowls", "title": "Acai Bowls"}], "rating": 4.0, "coordinates": {"latitude": 40.7663425495287, "longitude": -73.9573442729302}, "transactions": ["pickup", "delivery"], "location": {"address1": "1293 1st Ave", "address2": "", "address3": null, "city": "New York", "zip_code": "10021", "country": "US", "state": "NY", "display_address": ["1293 1st Ave", "New York, NY 10021"]}, "phone": "", "display_phone": "", "distance": 1288.0183964008004}, {"id": "cDz73R_9AYG1E3jHgR1UfA", "alias": "coco-fresh-tea-and-juice-new-york-24", "name": "CoCo Fresh Tea & Juice", "image_url": "https://s3-media1.fl.yelpcdn.com/bphoto/l8NTbCv3XjQLz5KmBSQsRQ/o.jpg", "is_closed": false, "url": "https://www.yelp.com/biz/coco-fresh-tea-and-juice-new-york-24?adjust_creative=pDRNOeZqz2kRCxLFBJobsA&utm_campaign=yelp_api_v3&utm_medium=api_v3_business_search&utm_source=pDRNOeZqz2kRCxLFBJobsA", "review_count": 27, "categories": [{"alias": "bubbletea", "title": "Bubble Tea"}, {"alias": "coffee", "title": "Coffee & Tea"}, {"alias": "juicebars", "title": "Juice Bars & Smoothies"}], "rating": 3.5, "coordinates": {"latitude": 40.760509821085, "longitude": -73.9908998832107}, "transactions": ["pickup", "delivery"], "location": {"address1": "646 9th Ave", "address2": "", "address3": null, "city": "New York", "zip_code": "10036", "country": "US", "state": "NY", "display_address": ["646 9th Ave", "New York, NY 10036"]}, "phone": "+16466093683", "display_phone": "(646) 609-3683", "distance": 1816.3206124115106}, {"id": "jxzBjnWg1SRMC8eERbE7LA", "alias": "jupioca-new-york-10", "name": "Jupioca", "image_url": "https://s3-media2.fl.yelpcdn.com/bphoto/5D07zj0rmGp4cjkQHQm8aQ/o.jpg", "is_closed": false, "url": "https://www.yelp.com/biz/jupioca-new-york-10?adjust_creative=pDRNOeZqz2kRCxLFBJobsA&utm_campaign=yelp_api_v3&utm_medium=api_v3_business_search&utm_source=pDRNOeZqz2kRCxLFBJobsA", "review_count": 42, "categories": [{"alias": "acaibowls", "title": "Acai Bowls"}, {"alias": "bubbletea", "title": "Bubble Tea"}, {"alias": "juicebars", "title": "Juice Bars & Smoothies"}], "rating": 4.0, "coordinates": {"latitude": 40.77038, "longitude": -73.95142}, "transactions": ["pickup", "delivery"], "price": "$", "location": {"address1": "1457 York Ave", "address2": "", "address3": null, "city": "New York", "zip_code": "10075", "country": "US", "state": "NY", "display_address": ["1457 York Ave", "New York, NY 10075"]}, "phone": "", "display_phone": "", "distance": 1958.0892215034924}, {"id": "ZLxXNFrH41z1rlteg9ORlw", "alias": "m\u00f6ge-tee-long-island-city", "name": "M\u00f6ge Tee", "image_url": "https://s3-media3.fl.yelpcdn.com/bphoto/HF4OtkGqF4GPkIk5_dmwsg/o.jpg", "is_closed": false, "url": "https://www.yelp.com/biz/m%C3%B6ge-tee-long-island-city?adjust_creative=pDRNOeZqz2kRCxLFBJobsA&utm_campaign=yelp_api_v3&utm_medium=api_v3_business_search&utm_source=pDRNOeZqz2kRCxLFBJobsA", "review_count": 82, "categories": [{"alias": "bubbletea", "title": "Bubble Tea"}, {"alias": "coffee", "title": "Coffee & Tea"}], "rating": 4.0, "coordinates": {"latitude": 40.7497805, "longitude": -73.9415148}, "transactions": ["pickup", "delivery"], "price": "$$", "location": {"address1": "42-32 Crescent St", "address2": null, "address3": "", "city": "Long Island City", "zip_code": "11101", "country": "US", "state": "NY", "display_address": ["42-32 Crescent St", "Long Island City, NY 11101"]}, "phone": "+15184180137", "display_phone": "(518) 418-0137", "distance": 2564.557041285626}, {"id": "9J02qsa0TkpcRi1XRm4gOg", "alias": "vivi-bubble-tea-new-york-3", "name": "Vivi Bubble Tea", "image_url": "https://s3-media2.fl.yelpcdn.com/bphoto/FEtU6Z0eyis2WNeP_C58QA/o.jpg", "is_closed": false, "url": "https://www.yelp.com/biz/vivi-bubble-tea-new-york-3?adjust_creative=pDRNOeZqz2kRCxLFBJobsA&utm_campaign=yelp_api_v3&utm_medium=api_v3_business_search&utm_source=pDRNOeZqz2kRCxLFBJobsA", "review_count": 202, "categories": [{"alias": "coffee", "title": "Coffee & Tea"}, {"alias": "bubbletea", "title": "Bubble Tea"}], "rating": 3.5, "coordinates": {"latitude": 40.743579864502, "longitude": -73.9954376220703}, "transactions": ["pickup", "delivery"], "price": "$", "location": {"address1": "170 W 23rd St", "address2": "", "address3": "", "city": "New York", "zip_code": "10011", "country": "US", "state": "NY", "display_address": ["170 W 23rd St", "New York, NY 10011"]}, "phone": "+12123660688", "display_phone": "(212) 366-0688", "distance": 2788.1695506592987}, {"id": "Ece_DRuD1yQjRPJBAebRpw", "alias": "kung-fu-little-steamed-buns-ramen-new-york-2", "name": "Kung Fu Little Steamed Buns Ramen", "image_url": "https://s3-media1.fl.yelpcdn.com/bphoto/XJxE5X6-L-E8OjXJA37X0w/o.jpg", "is_closed": false, "url": "https://www.yelp.com/biz/kung-fu-little-steamed-buns-ramen-new-york-2?adjust_creative=pDRNOeZqz2kRCxLFBJobsA&utm_campaign=yelp_api_v3&utm_medium=api_v3_business_search&utm_source=pDRNOeZqz2kRCxLFBJobsA", "review_count": 314, "categories": [{"alias": "ramen", "title": "Ramen"}, {"alias": "chinese", "title": "Chinese"}], "rating": 3.5, "coordinates": {"latitude": 40.7592514705491, "longitude": -73.9694294705987}, "transactions": ["pickup", "delivery"], "price": "$$", "location": {"address1": "146 E 55th St", "address2": "", "address3": "", "city": "New York", "zip_code": "10022", "country": "US", "state": "NY", "display_address": ["146 E 55th St", "New York, NY 10022"]}, "phone": "+12128048556", "display_phone": "(212) 804-8556", "distance": 4.403907124287392}, {"id": "2jk6LNOzupNMvMrJmoltlg", "alias": "vivi-bubble-tea-new-york-45", "name": "Vivi Bubble Tea", "image_url": "https://s3-media3.fl.yelpcdn.com/bphoto/53bzEoHUL9B5-rGo9sDK9Q/o.jpg", "is_closed": false, "url": "https://www.yelp.com/biz/vivi-bubble-tea-new-york-45?adjust_creative=pDRNOeZqz2kRCxLFBJobsA&utm_campaign=yelp_api_v3&utm_medium=api_v3_business_search&utm_source=pDRNOeZqz2kRCxLFBJobsA", "review_count": 40, "categories": [{"alias": "bubbletea", "title": "Bubble Tea"}], "rating": 3.5, "coordinates": {"latitude": 40.75255, "longitude": -73.98972}, "transactions": [], "price": "$", "location": {"address1": "488 7th Ave", "address2": "Store 2", "address3": "", "city": "New York", "zip_code": "10018", "country": "US", "state": "NY", "display_address": ["488 7th Ave", "Store 2", "New York, NY 10018"]}, "phone": "+16465906001", "display_phone": "(646) 590-6001", "distance": 1864.4342500056066}, {"id": "IzCbVels5WGv2Jc3mAYVbw", "alias": "boba-guys-new-york-2", "name": "Boba Guys", "image_url": "https://s3-media1.fl.yelpcdn.com/bphoto/dpC83ihSVSnekX7EUad56Q/o.jpg", "is_closed": false, "url": "https://www.yelp.com/biz/boba-guys-new-york-2?adjust_creative=pDRNOeZqz2kRCxLFBJobsA&utm_campaign=yelp_api_v3&utm_medium=api_v3_business_search&utm_source=pDRNOeZqz2kRCxLFBJobsA", "review_count": 455, "categories": [{"alias": "bubbletea", "title": "Bubble Tea"}], "rating": 4.0, "coordinates": {"latitude": 40.73014, "longitude": -73.9941599}, "transactions": [], "price": "$", "location": {"address1": "11 Waverly Pl", "address2": "", "address3": null, "city": "New York", "zip_code": "10002", "country": "US", "state": "NY", "display_address": ["11 Waverly Pl", "New York, NY 10002"]}, "phone": "+14159672622", "display_phone": "(415) 967-2622", "distance": 3841.9814784063597}, {"id": "IuHCNMhoUoxLY-TqsZbhzA", "alias": "macao-imperial-tea-new-york-2", "name": "Macao Imperial Tea", "image_url": "https://s3-media1.fl.yelpcdn.com/bphoto/IDdqG1wKD89OOO-AXmZYxQ/o.jpg", "is_closed": false, "url": "https://www.yelp.com/biz/macao-imperial-tea-new-york-2?adjust_creative=pDRNOeZqz2kRCxLFBJobsA&utm_campaign=yelp_api_v3&utm_medium=api_v3_business_search&utm_source=pDRNOeZqz2kRCxLFBJobsA", "review_count": 57, "categories": [{"alias": "coffee", "title": "Coffee & Tea"}, {"alias": "bubbletea", "title": "Bubble Tea"}, {"alias": "juicebars", "title": "Juice Bars & Smoothies"}], "rating": 4.0, "coordinates": {"latitude": 40.74766, "longitude": -73.98642}, "transactions": ["pickup", "delivery"], "price": "$", "location": {"address1": "15 W 32nd St", "address2": "", "address3": null, "city": "New York", "zip_code": "10001", "country": "US", "state": "NY", "display_address": ["15 W 32nd St", "New York, NY 10001"]}, "phone": "+12126957575", "display_phone": "(212) 695-7575", "distance": 1917.9160071899632}, {"id": "iAmvX6GjUo7hA4ndAGhg-g", "alias": "tenny-and-betsy-tea-and-pop-ups-new-york", "name": "Tenny & Betsy - Tea and Pop-Ups", "image_url": "https://s3-media3.fl.yelpcdn.com/bphoto/W7nqh8W1GEpoSCBYap5LZw/o.jpg", "is_closed": false, "url": "https://www.yelp.com/biz/tenny-and-betsy-tea-and-pop-ups-new-york?adjust_creative=pDRNOeZqz2kRCxLFBJobsA&utm_campaign=yelp_api_v3&utm_medium=api_v3_business_search&utm_source=pDRNOeZqz2kRCxLFBJobsA", "review_count": 74, "categories": [{"alias": "bubbletea", "title": "Bubble Tea"}, {"alias": "desserts", "title": "Desserts"}, {"alias": "coffee", "title": "Coffee & Tea"}], "rating": 3.5, "coordinates": {"latitude": 40.77258, "longitude": -73.95903}, "transactions": ["pickup", "delivery"], "price": "$$", "location": {"address1": "197 E 76th St", "address2": null, "address3": "", "city": "New York", "zip_code": "10021", "country": "US", "state": "NY", "display_address": ["197 E 76th St", "New York, NY 10021"]}, "phone": "+16467264000", "display_phone": "(646) 726-4000", "distance": 1726.0689140562288}, {"id": "bJgl6cDIBIMlgrntQbxt1g", "alias": "tomiz-new-york", "name": "Tomiz", "image_url": "https://s3-media3.fl.yelpcdn.com/bphoto/_Rskf90ezf37G4zBTohZGw/o.jpg", "is_closed": false, "url": "https://www.yelp.com/biz/tomiz-new-york?adjust_creative=pDRNOeZqz2kRCxLFBJobsA&utm_campaign=yelp_api_v3&utm_medium=api_v3_business_search&utm_source=pDRNOeZqz2kRCxLFBJobsA", "review_count": 1188, "categories": [{"alias": "japanese", "title": "Japanese"}, {"alias": "desserts", "title": "Desserts"}, {"alias": "cafes", "title": "Cafes"}], "rating": 4.0, "coordinates": {"latitude": 40.7523, "longitude": -73.98043}, "transactions": ["pickup", "delivery"], "price": "$", "location": {"address1": "18 E 41st St", "address2": "", "address3": "", "city": "New York", "zip_code": "10017", "country": "US", "state": "NY", "display_address": ["18 E 41st St", "New York, NY 10017"]}, "phone": "+12127790740", "display_phone": "(212) 779-0740", "distance": 1214.162179152414}, {"id": "iYsywuhlG7VJFdgdMqgV3w", "alias": "kung-fu-tea-new-york-18", "name": "Kung Fu Tea", "image_url": "https://s3-media3.fl.yelpcdn.com/bphoto/AYlv8smY2p0dB5A44nXQEQ/o.jpg", "is_closed": false, "url": "https://www.yelp.com/biz/kung-fu-tea-new-york-18?adjust_creative=pDRNOeZqz2kRCxLFBJobsA&utm_campaign=yelp_api_v3&utm_medium=api_v3_business_search&utm_source=pDRNOeZqz2kRCxLFBJobsA", "review_count": 170, "categories": [{"alias": "bubbletea", "title": "Bubble Tea"}, {"alias": "coffee", "title": "Coffee & Tea"}, {"alias": "juicebars", "title": "Juice Bars & Smoothies"}], "rating": 3.5, "coordinates": {"latitude": 40.7477882966671, "longitude": -73.986274046627}, "transactions": ["pickup", "delivery"], "price": "$", "location": {"address1": "11 W 32nd St", "address2": "", "address3": "", "city": "New York", "zip_code": "10001", "country": "US", "state": "NY", "display_address": ["11 W 32nd St", "New York, NY 10001"]}, "phone": "+12126955888", "display_phone": "(212) 695-5888", "distance": 1906.5205203051446}, {"id": "pGKk6juZpjLi2uXZYr7UAQ", "alias": "juicy-cube-new-york-2", "name": "Juicy Cube", "image_url": "https://s3-media4.fl.yelpcdn.com/bphoto/pSOqH7rPY4DeBWnfJPWPsg/o.jpg", "is_closed": false, "url": "https://www.yelp.com/biz/juicy-cube-new-york-2?adjust_creative=pDRNOeZqz2kRCxLFBJobsA&utm_campaign=yelp_api_v3&utm_medium=api_v3_business_search&utm_source=pDRNOeZqz2kRCxLFBJobsA", "review_count": 55, "categories": [{"alias": "acaibowls", "title": "Acai Bowls"}, {"alias": "bubbletea", "title": "Bubble Tea"}, {"alias": "juicebars", "title": "Juice Bars & Smoothies"}], "rating": 4.5, "coordinates": {"latitude": 40.7782207169156, "longitude": -73.98114525698}, "transactions": ["pickup", "delivery"], "price": "$$", "location": {"address1": "166 W 72nd St", "address2": "", "address3": null, "city": "New York", "zip_code": "10023", "country": "US", "state": "NY", "display_address": ["166 W 72nd St", "New York, NY 10023"]}, "phone": "+12127992888", "display_phone": "(212) 799-2888", "distance": 2333.0049593126246}, {"id": "9_PfzNxJP2iqqJs8hDubgw", "alias": "boba-guys-new-york", "name": "Boba Guys", "image_url": "https://s3-media4.fl.yelpcdn.com/bphoto/4xGJCNkMzf5f48rGNwNtSw/o.jpg", "is_closed": false, "url": "https://www.yelp.com/biz/boba-guys-new-york?adjust_creative=pDRNOeZqz2kRCxLFBJobsA&utm_campaign=yelp_api_v3&utm_medium=api_v3_business_search&utm_source=pDRNOeZqz2kRCxLFBJobsA", "review_count": 667, "categories": [{"alias": "coffee", "title": "Coffee & Tea"}, {"alias": "bubbletea", "title": "Bubble Tea"}], "rating": 4.0, "coordinates": {"latitude": 40.720657, "longitude": -73.984542}, "transactions": [], "price": "$", "location": {"address1": "23 Clinton St", "address2": "", "address3": "", "city": "New York", "zip_code": "10002", "country": "US", "state": "NY", "display_address": ["23 Clinton St", "New York, NY 10002"]}, "phone": "", "display_phone": "", "distance": 4477.61838872421}, {"id": "cdOayNacMbmKNjrVvvBTCw", "alias": "if-cha-tea-new-york-2", "name": "IF Cha Tea", "image_url": "https://s3-media3.fl.yelpcdn.com/bphoto/THkuK9_W8zrp6Otj-6ejxw/o.jpg", "is_closed": false, "url": "https://www.yelp.com/biz/if-cha-tea-new-york-2?adjust_creative=pDRNOeZqz2kRCxLFBJobsA&utm_campaign=yelp_api_v3&utm_medium=api_v3_business_search&utm_source=pDRNOeZqz2kRCxLFBJobsA", "review_count": 18, "categories": [{"alias": "bubbletea", "title": "Bubble Tea"}, {"alias": "juicebars", "title": "Juice Bars & Smoothies"}], "rating": 3.5, "coordinates": {"latitude": 40.7401526014217, "longitude": -73.9826896414161}, "transactions": [], "price": "$", "location": {"address1": "162A E 25th St", "address2": "", "address3": null, "city": "New York", "zip_code": "10010", "country": "US", "state": "NY", "display_address": ["162A E 25th St", "New York, NY 10010"]}, "phone": "+19178181028", "display_phone": "(917) 818-1028", "distance": 2397.275323791728}, {"id": "DjKAV1M7HWGGyzsfqUrcFw", "alias": "debutea-new-york", "name": "Debutea", "image_url": "https://s3-media1.fl.yelpcdn.com/bphoto/5KUFD16FfjSIv5LhG4_kSw/o.jpg", "is_closed": false, "url": "https://www.yelp.com/biz/debutea-new-york?adjust_creative=pDRNOeZqz2kRCxLFBJobsA&utm_campaign=yelp_api_v3&utm_medium=api_v3_business_search&utm_source=pDRNOeZqz2kRCxLFBJobsA", "review_count": 170, "categories": [{"alias": "bubbletea", "title": "Bubble Tea"}, {"alias": "coffee", "title": "Coffee & Tea"}, {"alias": "juicebars", "title": "Juice Bars & Smoothies"}], "rating": 4.0, "coordinates": {"latitude": 40.729188, "longitude": -73.9993244}, "transactions": ["pickup", "delivery"], "price": "$", "location": {"address1": "217 Thompson St", "address2": null, "address3": "", "city": "New York", "zip_code": "10012", "country": "US", "state": "NY", "display_address": ["217 Thompson St", "New York, NY 10012"]}, "phone": "+16467670147", "display_phone": "(646) 767-0147", "distance": 4183.796406418921}, {"id": "JylIStPfFLOctHdlglvALA", "alias": "ut47-new-york-3", "name": "UT47", "image_url": "https://s3-media3.fl.yelpcdn.com/bphoto/so5hv68GpRUMpjdEHwaN2g/o.jpg", "is_closed": false, "url": "https://www.yelp.com/biz/ut47-new-york-3?adjust_creative=pDRNOeZqz2kRCxLFBJobsA&utm_campaign=yelp_api_v3&utm_medium=api_v3_business_search&utm_source=pDRNOeZqz2kRCxLFBJobsA", "review_count": 221, "categories": [{"alias": "coffee", "title": "Coffee & Tea"}, {"alias": "breakfast_brunch", "title": "Breakfast & Brunch"}, {"alias": "vegan", "title": "Vegan"}], "rating": 4.0, "coordinates": {"latitude": 40.7613128165844, "longitude": -73.9899748563766}, "transactions": [], "price": "$", "location": {"address1": "358 W 47th St", "address2": "", "address3": null, "city": "New York", "zip_code": "10036", "country": "US", "state": "NY", "display_address": ["358 W 47th St", "New York, NY 10036"]}, "phone": "+19172658629", "display_phone": "(917) 265-8629", "distance": 1748.3000366724223}, {"id": "56rTisZA_iEekMsyZHvSHQ", "alias": "momentea-kitchen-new-york-2", "name": "MomenTea Kitchen", "image_url": "https://s3-media2.fl.yelpcdn.com/bphoto/vbt2JZdsfjxl72NhK7HRGQ/o.jpg", "is_closed": false, "url": "https://www.yelp.com/biz/momentea-kitchen-new-york-2?adjust_creative=pDRNOeZqz2kRCxLFBJobsA&utm_campaign=yelp_api_v3&utm_medium=api_v3_business_search&utm_source=pDRNOeZqz2kRCxLFBJobsA", "review_count": 45, "categories": [{"alias": "sushi", "title": "Sushi Bars"}, {"alias": "bubbletea", "title": "Bubble Tea"}, {"alias": "noodles", "title": "Noodles"}], "rating": 4.0, "coordinates": {"latitude": 40.7551628731681, "longitude": -73.9885599911213}, "transactions": ["pickup", "delivery"], "price": "$$", "location": {"address1": "213 W 40th St", "address2": "", "address3": null, "city": "New York", "zip_code": "10018", "country": "US", "state": "NY", "display_address": ["213 W 40th St", "New York, NY 10018"]}, "phone": "+16466660308", "display_phone": "(646) 666-0308", "distance": 1675.4220866253759}, {"id": "zG0dayKHgunWyRZ2tqj1kA", "alias": "yifang-taiwan-fruit-tea-new-york-8", "name": "YiFang Taiwan Fruit Tea", "image_url": "https://s3-media2.fl.yelpcdn.com/bphoto/swxUNJtwLBzwnZtOKM5h0w/o.jpg", "is_closed": false, "url": "https://www.yelp.com/biz/yifang-taiwan-fruit-tea-new-york-8?adjust_creative=pDRNOeZqz2kRCxLFBJobsA&utm_campaign=yelp_api_v3&utm_medium=api_v3_business_search&utm_source=pDRNOeZqz2kRCxLFBJobsA", "review_count": 5, "categories": [{"alias": "bubbletea", "title": "Bubble Tea"}], "rating": 3.5, "coordinates": {"latitude": 40.7408555, "longitude": -73.9835123}, "transactions": ["pickup", "delivery"], "location": {"address1": "61 Lexington Ave", "address2": "", "address3": null, "city": "New York", "zip_code": "10010", "country": "US", "state": "NY", "display_address": ["61 Lexington Ave", "New York, NY 10010"]}, "phone": "", "display_phone": "", "distance": 2362.535636953074}, {"id": "IXiIHsHW98lt9eMLw4fUTw", "alias": "coco-fresh-tea-and-juice-new-york-23", "name": "CoCo Fresh Tea & Juice", "image_url": "https://s3-media3.fl.yelpcdn.com/bphoto/ZBkMsaTEgJn62LG7SNxbWw/o.jpg", "is_closed": false, "url": "https://www.yelp.com/biz/coco-fresh-tea-and-juice-new-york-23?adjust_creative=pDRNOeZqz2kRCxLFBJobsA&utm_campaign=yelp_api_v3&utm_medium=api_v3_business_search&utm_source=pDRNOeZqz2kRCxLFBJobsA", "review_count": 5, "categories": [{"alias": "juicebars", "title": "Juice Bars & Smoothies"}, {"alias": "bubbletea", "title": "Bubble Tea"}, {"alias": "coffee", "title": "Coffee & Tea"}], "rating": 4.0, "coordinates": {"latitude": 40.7534, "longitude": -73.97434}, "transactions": ["pickup", "delivery"], "location": {"address1": "459 Lexington Ave", "address2": null, "address3": null, "city": "New York", "zip_code": "10017", "country": "US", "state": "NY", "display_address": ["459 Lexington Ave", "New York, NY 10017"]}, "phone": "+12125188808", "display_phone": "(212) 518-8808", "distance": 769.5045275764911}, {"id": "32wk98XmAB97O1_Xoy_LuA", "alias": "vivi-bubble-tea-new-york-46", "name": "ViVi bubble tea", "image_url": "https://s3-media2.fl.yelpcdn.com/bphoto/agMRxVNxCFMUIXhZ9XZ3TQ/o.jpg", "is_closed": false, "url": "https://www.yelp.com/biz/vivi-bubble-tea-new-york-46?adjust_creative=pDRNOeZqz2kRCxLFBJobsA&utm_campaign=yelp_api_v3&utm_medium=api_v3_business_search&utm_source=pDRNOeZqz2kRCxLFBJobsA", "review_count": 11, "categories": [{"alias": "bubbletea", "title": "Bubble Tea"}], "rating": 4.5, "coordinates": {"latitude": 40.740478, "longitude": -73.984263}, "transactions": ["pickup", "delivery"], "location": {"address1": "50 Lexington Ave", "address2": null, "address3": "", "city": "New York", "zip_code": "10010", "country": "US", "state": "NY", "display_address": ["50 Lexington Ave", "New York, NY 10010"]}, "phone": "+19172617169", "display_phone": "(917) 261-7169", "distance": 2430.860040559784}, {"id": "neQM053ovAOrf1sVSAPI9w", "alias": "radiance-tea-house-and-books-new-york-2", "name": "Radiance Tea House and Books", "image_url": "https://s3-media2.fl.yelpcdn.com/bphoto/anVDDCm1UhTogH1V8kbTpg/o.jpg", "is_closed": false, "url": "https://www.yelp.com/biz/radiance-tea-house-and-books-new-york-2?adjust_creative=pDRNOeZqz2kRCxLFBJobsA&utm_campaign=yelp_api_v3&utm_medium=api_v3_business_search&utm_source=pDRNOeZqz2kRCxLFBJobsA", "review_count": 851, "categories": [{"alias": "asianfusion", "title": "Asian Fusion"}, {"alias": "tea", "title": "Tea Rooms"}, {"alias": "chinese", "title": "Chinese"}], "rating": 4.0, "coordinates": {"latitude": 40.7639799, "longitude": -73.98065}, "transactions": ["pickup", "delivery"], "price": "$$", "location": {"address1": "158 W 55th St", "address2": "", "address3": "", "city": "New York", "zip_code": "10019", "country": "US", "state": "NY", "display_address": ["158 W 55th St", "New York, NY 10019"]}, "phone": "+12122170442", "display_phone": "(212) 217-0442", "distance": 1069.8198745926313}], "total": 301, "region": {"center": {"longitude": -73.96940231323242, "latitude": 40.75921762631404}}}