{"businesses": [{"id": "SfPpG-v8K-t6tAr4USL-mw", "alias": "vivi-bubble-tea-chicago", "name": "Vivi Bubble Tea", "image_url": "https://s3-media1.fl.yelpcdn.com/bphoto/G0EOUYmrfFgi3j4rEkDgGQ/o.jpg", "is_closed": false, "url": "https://www.yelp.com/biz/vivi-bubble-tea-chicago?adjust_creative=pDRNOeZqz2kRCxLFBJobsA&utm_campaign=yelp_api_v3&utm_medium=api_v3_business_search&utm_source=pDRNOeZqz2kRCxLFBJobsA", "review_count": 284, "categories": [{"alias": "bubbletea", "title": "Bubble Tea"}, {"alias": "icecream", "title": "Ice Cream & Frozen Yogurt"}], "rating": 4.0, "coordinates": {"latitude": 41.877308, "longitude": -87.627432}, "transactions": ["delivery"], "price": "$", "location": {"address1": "333 S State St", "address2": "", "address3": "", "city": "Chicago", "zip_code": "60604", "country": "US", "state": "IL", "display_address": ["333 S State St", "Chicago, IL 60604"]}, "phone": "+13124311150", "display_phone": "(312) 431-1150", "distance": 5191.238096110115}, {"id": "6D1v1lSjmXEXAsOp3eGxMQ", "alias": "elitea-chicago-3", "name": "Elitea", "image_url": "https://s3-media2.fl.yelpcdn.com/bphoto/MSxK6my4tIWoj4-yD-uOuA/o.jpg", "is_closed": false, "url": "https://www.yelp.com/biz/elitea-chicago-3?adjust_creative=pDRNOeZqz2kRCxLFBJobsA&utm_campaign=yelp_api_v3&utm_medium=api_v3_business_search&utm_source=pDRNOeZqz2kRCxLFBJobsA", "review_count": 130, "categories": [{"alias": "bubbletea", "title": "Bubble Tea"}], "rating": 4.0, "coordinates": {"latitude": 41.85505, "longitude": -87.63219}, "transactions": ["delivery", "pickup"], "price": "$", "location": {"address1": "2002 S Wentworth Ave", "address2": "Ste B09", "address3": null, "city": "Chicago", "zip_code": "60616", "country": "US", "state": "IL", "display_address": ["2002 S Wentworth Ave", "Ste B09", "Chicago, IL 60616"]}, "phone": "+13124689909", "display_phone": "(312) 468-9909", "distance": 6729.708644420439}, {"id": "f8GbO9pV5GTDTfO-ETPp3g", "alias": "eat-me-milk-me-chicago-6", "name": "Eat Me Milk Me", "image_url": "https://s3-media1.fl.yelpcdn.com/bphoto/O01XhzIVkFZsaRee56f08w/o.jpg", "is_closed": false, "url": "https://www.yelp.com/biz/eat-me-milk-me-chicago-6?adjust_creative=pDRNOeZqz2kRCxLFBJobsA&utm_campaign=yelp_api_v3&utm_medium=api_v3_business_search&utm_source=pDRNOeZqz2kRCxLFBJobsA", "review_count": 43, "categories": [{"alias": "coffee", "title": "Coffee & Tea"}, {"alias": "bubbletea", "title": "Bubble Tea"}, {"alias": "themedcafes", "title": "Themed Cafes"}], "rating": 4.5, "coordinates": {"latitude": 41.883987, "longitude": -87.654971}, "transactions": [], "price": "$", "location": {"address1": "1111 W Randolph St", "address2": null, "address3": null, "city": "Chicago", "zip_code": "60607", "country": "US", "state": "IL", "display_address": ["1111 W Randolph St", "Chicago, IL 60607"]}, "phone": "+13122650615", "display_phone": "(312) 265-0615", "distance": 3017.405607003913}, {"id": "ATlXGZTMhSheo_9zB3hfbQ", "alias": "teamo-boba-bar-chicago-4", "name": "Te'amo Boba Bar", "image_url": "https://s3-media2.fl.yelpcdn.com/bphoto/hFNx3rnOjGzlwEwpmX3HJg/o.jpg", "is_closed": false, "url": "https://www.yelp.com/biz/teamo-boba-bar-chicago-4?adjust_creative=pDRNOeZqz2kRCxLFBJobsA&utm_campaign=yelp_api_v3&utm_medium=api_v3_business_search&utm_source=pDRNOeZqz2kRCxLFBJobsA", "review_count": 93, "categories": [{"alias": "bubbletea", "title": "Bubble Tea"}, {"alias": "tea", "title": "Tea Rooms"}, {"alias": "juicebars", "title": "Juice Bars & Smoothies"}], "rating": 3.5, "coordinates": {"latitude": 41.891528, "longitude": -87.624885}, "transactions": ["delivery", "pickup"], "price": "$$", "location": {"address1": "520 N Michigan Ave", "address2": "Ste 421", "address3": "", "city": "Chicago", "zip_code": "60611", "country": "US", "state": "IL", "display_address": ["520 N Michigan Ave", "Ste 421", "Chicago, IL 60611"]}, "phone": "", "display_phone": "", "distance": 4631.675800309859}, {"id": "i3ODNsExVbjkiHRW9X6dcg", "alias": "taiyaki-chicago-chicago-2", "name": "Taiyaki Chicago", "image_url": "https://s3-media3.fl.yelpcdn.com/bphoto/XIH29SKIQNYMEXRn_VntXw/o.jpg", "is_closed": false, "url": "https://www.yelp.com/biz/taiyaki-chicago-chicago-2?adjust_creative=pDRNOeZqz2kRCxLFBJobsA&utm_campaign=yelp_api_v3&utm_medium=api_v3_business_search&utm_source=pDRNOeZqz2kRCxLFBJobsA", "review_count": 65, "categories": [{"alias": "desserts", "title": "Desserts"}, {"alias": "bubbletea", "title": "Bubble Tea"}, {"alias": "icecream", "title": "Ice Cream & Frozen Yogurt"}], "rating": 4.0, "coordinates": {"latitude": 41.92733, "longitude": -87.64201}, "transactions": ["delivery"], "location": {"address1": "2468 N Clark St", "address2": null, "address3": "", "city": "Chicago", "zip_code": "60614", "country": "US", "state": "IL", "display_address": ["2468 N Clark St", "Chicago, IL 60614"]}, "phone": "+17733601785", "display_phone": "(773) 360-1785", "distance": 3857.891618143097}, {"id": "wGwnYWcFUrYmH-YLPc-vbw", "alias": "bambu-chicago-2", "name": "BAMBU", "image_url": "https://s3-media1.fl.yelpcdn.com/bphoto/_J867dHPoZSGwAYvxEGBLg/o.jpg", "is_closed": false, "url": "https://www.yelp.com/biz/bambu-chicago-2?adjust_creative=pDRNOeZqz2kRCxLFBJobsA&utm_campaign=yelp_api_v3&utm_medium=api_v3_business_search&utm_source=pDRNOeZqz2kRCxLFBJobsA", "review_count": 178, "categories": [{"alias": "bubbletea", "title": "Bubble Tea"}, {"alias": "coffee", "title": "Coffee & Tea"}, {"alias": "juicebars", "title": "Juice Bars & Smoothies"}], "rating": 4.0, "coordinates": {"latitude": 41.9730429, "longitude": -87.6599249}, "transactions": ["delivery", "pickup"], "price": "$", "location": {"address1": "5010 N Broadway", "address2": "", "address3": null, "city": "Chicago", "zip_code": "60640", "country": "US", "state": "IL", "display_address": ["5010 N Broadway", "Chicago, IL 60640"]}, "phone": "+17732937234", "display_phone": "(773) 293-7234", "distance": 7695.6755856044265}, {"id": "Hi2z31a7ynVqlfTax-NWDw", "alias": "bingo-tea-chicago", "name": "Bingo Tea", "image_url": "https://s3-media3.fl.yelpcdn.com/bphoto/ekMV_H04GH_uEU8M-6zr2g/o.jpg", "is_closed": false, "url": "https://www.yelp.com/biz/bingo-tea-chicago?adjust_creative=pDRNOeZqz2kRCxLFBJobsA&utm_campaign=yelp_api_v3&utm_medium=api_v3_business_search&utm_source=pDRNOeZqz2kRCxLFBJobsA", "review_count": 171, "categories": [{"alias": "bubbletea", "title": "Bubble Tea"}], "rating": 4.0, "coordinates": {"latitude": 41.85362, "longitude": -87.63412}, "transactions": ["delivery"], "price": "$$", "location": {"address1": "2150 S Archer Ave", "address2": "", "address3": null, "city": "Chicago", "zip_code": "60616", "country": "US", "state": "IL", "display_address": ["2150 S Archer Ave", "Chicago, IL 60616"]}, "phone": "+13123286668", "display_phone": "(312) 328-6668", "distance": 6772.824058989394}, {"id": "UA-IIIhG3uTzAITlw6HjjA", "alias": "tsa\u00f4caa-chicago-3", "name": "TSA\u00f4CAA", "image_url": "https://s3-media4.fl.yelpcdn.com/bphoto/cTILyyzWeVPImLGpNwjhmg/o.jpg", "is_closed": false, "url": "https://www.yelp.com/biz/tsa%C3%B4caa-chicago-3?adjust_creative=pDRNOeZqz2kRCxLFBJobsA&utm_campaign=yelp_api_v3&utm_medium=api_v3_business_search&utm_source=pDRNOeZqz2kRCxLFBJobsA", "review_count": 143, "categories": [{"alias": "bubbletea", "title": "Bubble Tea"}, {"alias": "shavedice", "title": "Shaved Ice"}, {"alias": "macarons", "title": "Macarons"}], "rating": 4.0, "coordinates": {"latitude": 41.8547124376889, "longitude": -87.6303581989966}, "transactions": ["delivery"], "location": {"address1": "2026 South Clark St", "address2": "Unit G", "address3": "", "city": "Chicago", "zip_code": "60616", "country": "US", "state": "IL", "display_address": ["2026 South Clark St", "Unit G", "Chicago, IL 60616"]}, "phone": "+13126249650", "display_phone": "(312) 624-9650", "distance": 6846.132693297828}, {"id": "BhWMQTZGCKCXEMFEht7trw", "alias": "tao-tea-chicago", "name": "Tao Tea", "image_url": "https://s3-media1.fl.yelpcdn.com/bphoto/9LsPlkCxIOxQtIFIhGTrEw/o.jpg", "is_closed": false, "url": "https://www.yelp.com/biz/tao-tea-chicago?adjust_creative=pDRNOeZqz2kRCxLFBJobsA&utm_campaign=yelp_api_v3&utm_medium=api_v3_business_search&utm_source=pDRNOeZqz2kRCxLFBJobsA", "review_count": 27, "categories": [{"alias": "bubbletea", "title": "Bubble Tea"}, {"alias": "tea", "title": "Tea Rooms"}], "rating": 4.0, "coordinates": {"latitude": 41.9728491, "longitude": -87.659955}, "transactions": [], "price": "$$", "location": {"address1": "5002 N Broadway", "address2": null, "address3": null, "city": "Chicago", "zip_code": "60640", "country": "US", "state": "IL", "display_address": ["5002 N Broadway", "Chicago, IL 60640"]}, "phone": "+17739440209", "display_phone": "(773) 944-0209", "distance": 7669.5599924849885}, {"id": "cT8Vvj0a22KNoHnaPhnSBA", "alias": "tealicious-bubble-evanston-2", "name": "TEAlicious BUBBLE", "image_url": "https://s3-media3.fl.yelpcdn.com/bphoto/JtajCb6UBpeIAe4P_m4iXw/o.jpg", "is_closed": false, "url": "https://www.yelp.com/biz/tealicious-bubble-evanston-2?adjust_creative=pDRNOeZqz2kRCxLFBJobsA&utm_campaign=yelp_api_v3&utm_medium=api_v3_business_search&utm_source=pDRNOeZqz2kRCxLFBJobsA", "review_count": 64, "categories": [{"alias": "bubbletea", "title": "Bubble Tea"}, {"alias": "taiwanese", "title": "Taiwanese"}, {"alias": "juicebars", "title": "Juice Bars & Smoothies"}], "rating": 4.5, "coordinates": {"latitude": 42.045909, "longitude": -87.681591}, "transactions": ["delivery", "pickup"], "price": "$", "location": {"address1": "1565 Sherman Ave", "address2": null, "address3": "", "city": "Evanston", "zip_code": "60201", "country": "US", "state": "IL", "display_address": ["1565 Sherman Ave", "Evanston, IL 60201"]}, "phone": "+12249997065", "display_phone": "(224) 999-7065", "distance": 15661.101131380612}, {"id": "hg7GTftFbQG2Y6jz8u_Olg", "alias": "b-i-tea-and-dim-sum-chicago", "name": "B.I.Tea & Dim Sum", "image_url": "https://s3-media2.fl.yelpcdn.com/bphoto/PTDM60BSaUSc2AER_1253Q/o.jpg", "is_closed": false, "url": "https://www.yelp.com/biz/b-i-tea-and-dim-sum-chicago?adjust_creative=pDRNOeZqz2kRCxLFBJobsA&utm_campaign=yelp_api_v3&utm_medium=api_v3_business_search&utm_source=pDRNOeZqz2kRCxLFBJobsA", "review_count": 80, "categories": [{"alias": "bubbletea", "title": "Bubble Tea"}, {"alias": "dimsum", "title": "Dim Sum"}], "rating": 4.0, "coordinates": {"latitude": 41.8839695, "longitude": -87.6410747}, "transactions": ["delivery", "pickup"], "price": "$", "location": {"address1": "131 N Clinton St", "address2": "", "address3": "Chicago French Market", "city": "Chicago", "zip_code": "60661", "country": "US", "state": "IL", "display_address": ["131 N Clinton St", "Chicago French Market", "Chicago, IL 60661"]}, "phone": "+13129645195", "display_phone": "(312) 964-5195", "distance": 3839.0058582723445}, {"id": "6N7B7gdAZSQZVcBPTgQTfQ", "alias": "kung-fu-tea-chicago-5", "name": "Kung Fu Tea", "image_url": "https://s3-media4.fl.yelpcdn.com/bphoto/rqDx_vwLUUEhKERSuF32og/o.jpg", "is_closed": false, "url": "https://www.yelp.com/biz/kung-fu-tea-chicago-5?adjust_creative=pDRNOeZqz2kRCxLFBJobsA&utm_campaign=yelp_api_v3&utm_medium=api_v3_business_search&utm_source=pDRNOeZqz2kRCxLFBJobsA", "review_count": 121, "categories": [{"alias": "bubbletea", "title": "Bubble Tea"}, {"alias": "coffee", "title": "Coffee & Tea"}, {"alias": "juicebars", "title": "Juice Bars & Smoothies"}], "rating": 3.5, "coordinates": {"latitude": 41.972313, "longitude": -87.659397}, "transactions": ["delivery", "pickup"], "price": "$", "location": {"address1": "4925 N Broadway", "address2": "Ste D", "address3": "", "city": "Chicago", "zip_code": "60640", "country": "US", "state": "IL", "display_address": ["4925 N Broadway", "Ste D", "Chicago, IL 60640"]}, "phone": "+18722085955", "display_phone": "(872) 208-5955", "distance": 7620.135803188009}, {"id": "CkGsr6tukuPyARQE4AVQ6A", "alias": "hello-jasmine-chicago-5", "name": "Hello Jasmine", "image_url": "https://s3-media4.fl.yelpcdn.com/bphoto/9Tqqy79mJn2hNQ5o-mtb5Q/o.jpg", "is_closed": false, "url": "https://www.yelp.com/biz/hello-jasmine-chicago-5?adjust_creative=pDRNOeZqz2kRCxLFBJobsA&utm_campaign=yelp_api_v3&utm_medium=api_v3_business_search&utm_source=pDRNOeZqz2kRCxLFBJobsA", "review_count": 30, "categories": [{"alias": "bubbletea", "title": "Bubble Tea"}], "rating": 4.0, "coordinates": {"latitude": 41.88235, "longitude": -87.6404699}, "transactions": ["delivery", "pickup"], "price": "$$", "location": {"address1": "500 W Madison St", "address2": "", "address3": "", "city": "Chicago", "zip_code": "60661", "country": "US", "state": "IL", "display_address": ["500 W Madison St", "Chicago, IL 60661"]}, "phone": "+13124542984", "display_phone": "(312) 454-2984", "distance": 4003.6717629994387}, {"id": "Xm2Mrdgjf2WUDDBUWWdNTQ", "alias": "kurimu-chicago-3", "name": "KURIMU", "image_url": "https://s3-media4.fl.yelpcdn.com/bphoto/QVPapuL4KfDiBx9vNFtjxg/o.jpg", "is_closed": false, "url": "https://www.yelp.com/biz/kurimu-chicago-3?adjust_creative=pDRNOeZqz2kRCxLFBJobsA&utm_campaign=yelp_api_v3&utm_medium=api_v3_business_search&utm_source=pDRNOeZqz2kRCxLFBJobsA", "review_count": 43, "categories": [{"alias": "bubbletea", "title": "Bubble Tea"}, {"alias": "icecream", "title": "Ice Cream & Frozen Yogurt"}], "rating": 4.5, "coordinates": {"latitude": 41.8694063471, "longitude": -87.6563846}, "transactions": [], "price": "$$", "location": {"address1": "1159 W Taylor St", "address2": null, "address3": "", "city": "Chicago", "zip_code": "60607", "country": "US", "state": "IL", "display_address": ["1159 W Taylor St", "Chicago, IL 60607"]}, "phone": "+13128775227", "display_phone": "(312) 877-5227", "distance": 4351.702019738518}, {"id": "7YEhilJMQOntdKMleZCGuw", "alias": "java-and-mug-cafe-chicago", "name": "Java & Mug Cafe", "image_url": "https://s3-media3.fl.yelpcdn.com/bphoto/8vv7xalbDCmG1J44D4Gfrg/o.jpg", "is_closed": false, "url": "https://www.yelp.com/biz/java-and-mug-cafe-chicago?adjust_creative=pDRNOeZqz2kRCxLFBJobsA&utm_campaign=yelp_api_v3&utm_medium=api_v3_business_search&utm_source=pDRNOeZqz2kRCxLFBJobsA", "review_count": 197, "categories": [{"alias": "coffee", "title": "Coffee & Tea"}, {"alias": "bubbletea", "title": "Bubble Tea"}], "rating": 4.5, "coordinates": {"latitude": 41.98279, "longitude": -87.71071}, "transactions": ["delivery"], "price": "$", "location": {"address1": "3247 W Bryn Mawr Ave", "address2": "", "address3": "", "city": "Chicago", "zip_code": "60659", "country": "US", "state": "IL", "display_address": ["3247 W Bryn Mawr Ave", "Chicago, IL 60659"]}, "phone": "+17735390407", "display_phone": "(773) 539-0407", "distance": 9071.390838845366}, {"id": "BXsqsQn5_zCF5eYgHJkrWA", "alias": "tea-ninja-chicago-4", "name": "Tea Ninja", "image_url": "https://s3-media4.fl.yelpcdn.com/bphoto/ztkXykn1yssPzdVXWRA-uw/o.jpg", "is_closed": false, "url": "https://www.yelp.com/biz/tea-ninja-chicago-4?adjust_creative=pDRNOeZqz2kRCxLFBJobsA&utm_campaign=yelp_api_v3&utm_medium=api_v3_business_search&utm_source=pDRNOeZqz2kRCxLFBJobsA", "review_count": 35, "categories": [{"alias": "bubbletea", "title": "Bubble Tea"}], "rating": 3.5, "coordinates": {"latitude": 41.93878, "longitude": -87.64419}, "transactions": [], "price": "$", "location": {"address1": "3139 N Broadway", "address2": null, "address3": "", "city": "Chicago", "zip_code": "60657", "country": "US", "state": "IL", "display_address": ["3139 N Broadway", "Chicago, IL 60657"]}, "phone": "+17733608991", "display_phone": "(773) 360-8991", "distance": 4663.29773943863}, {"id": "ZGHUs4jAlh4jO4cntDgi5Q", "alias": "hubba-bobba-chicago-2", "name": "Hubba Bobba", "image_url": "https://s3-media3.fl.yelpcdn.com/bphoto/re5UBevDTHuLreG9PPS49w/o.jpg", "is_closed": false, "url": "https://www.yelp.com/biz/hubba-bobba-chicago-2?adjust_creative=pDRNOeZqz2kRCxLFBJobsA&utm_campaign=yelp_api_v3&utm_medium=api_v3_business_search&utm_source=pDRNOeZqz2kRCxLFBJobsA", "review_count": 88, "categories": [{"alias": "coffee", "title": "Coffee & Tea"}, {"alias": "bubbletea", "title": "Bubble Tea"}, {"alias": "juicebars", "title": "Juice Bars & Smoothies"}], "rating": 3.5, "coordinates": {"latitude": 41.92147, "longitude": -87.65405}, "transactions": ["delivery", "pickup"], "price": "$$", "location": {"address1": "1013 W Webster Ave", "address2": "", "address3": null, "city": "Chicago", "zip_code": "60614", "country": "US", "state": "IL", "display_address": ["1013 W Webster Ave", "Chicago, IL 60614"]}, "phone": "+17734534900", "display_phone": "(773) 453-4900", "distance": 2681.5406408824433}, {"id": "3Pgn3GYIvWajpSlCejZjSQ", "alias": "taipei-cafe-chicago", "name": "Taipei Cafe", "image_url": "https://s3-media2.fl.yelpcdn.com/bphoto/PGn05pFxZGIw7aROaELaiA/o.jpg", "is_closed": false, "url": "https://www.yelp.com/biz/taipei-cafe-chicago?adjust_creative=pDRNOeZqz2kRCxLFBJobsA&utm_campaign=yelp_api_v3&utm_medium=api_v3_business_search&utm_source=pDRNOeZqz2kRCxLFBJobsA", "review_count": 261, "categories": [{"alias": "taiwanese", "title": "Taiwanese"}, {"alias": "shavedice", "title": "Shaved Ice"}, {"alias": "bubbletea", "title": "Bubble Tea"}], "rating": 4.0, "coordinates": {"latitude": 41.84501, "longitude": -87.6463051}, "transactions": ["delivery", "pickup"], "price": "$$", "location": {"address1": "2609 S Halsted St", "address2": "", "address3": null, "city": "Chicago", "zip_code": "60608", "country": "US", "state": "IL", "display_address": ["2609 S Halsted St", "Chicago, IL 60608"]}, "phone": "+13123741986", "display_phone": "(312) 374-1986", "distance": 7184.866078920569}, {"id": "I2WfW2syUw_imsSs5w5UZg", "alias": "kung-fu-tea-chicago-3", "name": "Kung Fu Tea", "image_url": "https://s3-media1.fl.yelpcdn.com/bphoto/_QHHpXdkJJen3bCNdcehqQ/o.jpg", "is_closed": false, "url": "https://www.yelp.com/biz/kung-fu-tea-chicago-3?adjust_creative=pDRNOeZqz2kRCxLFBJobsA&utm_campaign=yelp_api_v3&utm_medium=api_v3_business_search&utm_source=pDRNOeZqz2kRCxLFBJobsA", "review_count": 369, "categories": [{"alias": "coffee", "title": "Coffee & Tea"}, {"alias": "bubbletea", "title": "Bubble Tea"}, {"alias": "juicebars", "title": "Juice Bars & Smoothies"}], "rating": 3.5, "coordinates": {"latitude": 41.8542670308205, "longitude": -87.6328884447052}, "transactions": [], "price": "$", "location": {"address1": "2126B S Archer Ave", "address2": "", "address3": "", "city": "Chicago", "zip_code": "60616", "country": "US", "state": "IL", "display_address": ["2126B S Archer Ave", "Chicago, IL 60616"]}, "phone": "+13122557331", "display_phone": "(312) 255-7331", "distance": 6769.585554359706}, {"id": "O8FCxbhipTldHyRyUB8nFg", "alias": "snow-dragon-shavery-and-yogurt-chicago", "name": "Snow Dragon Shavery & Yogurt", "image_url": "https://s3-media2.fl.yelpcdn.com/bphoto/qXkBAAal0dOnXlLL08QzTQ/o.jpg", "is_closed": false, "url": "https://www.yelp.com/biz/snow-dragon-shavery-and-yogurt-chicago?adjust_creative=pDRNOeZqz2kRCxLFBJobsA&utm_campaign=yelp_api_v3&utm_medium=api_v3_business_search&utm_source=pDRNOeZqz2kRCxLFBJobsA", "review_count": 365, "categories": [{"alias": "shavedice", "title": "Shaved Ice"}, {"alias": "icecream", "title": "Ice Cream & Frozen Yogurt"}, {"alias": "bubbletea", "title": "Bubble Tea"}], "rating": 4.0, "coordinates": {"latitude": 41.9300635273516, "longitude": -87.6437006588608}, "transactions": ["delivery", "pickup"], "price": "$", "location": {"address1": "2618 N Clark St", "address2": "", "address3": "", "city": "Chicago", "zip_code": "60614", "country": "US", "state": "IL", "display_address": ["2618 N Clark St", "Chicago, IL 60614"]}, "phone": "+17732819866", "display_phone": "(773) 281-9866", "distance": 3951.272260888107}], "total": 341, "region": {"center": {"longitude": -87.67776489257812, "latitude": 41.90515925618311}}}