{"businesses": [{"id": "wusuW7VDDWEGKfOBbm2k_g", "alias": "xing-fu-tang-flushing", "name": "Xing Fu Tang", "image_url": "https://s3-media2.fl.yelpcdn.com/bphoto/QdA3Ss_rJ5jvJhpGbPIb-A/o.jpg", "is_closed": false, "url": "https://www.yelp.com/biz/xing-fu-tang-flushing?adjust_creative=pDRNOeZqz2kRCxLFBJobsA&utm_campaign=yelp_api_v3&utm_medium=api_v3_business_search&utm_source=pDRNOeZqz2kRCxLFBJobsA", "review_count": 130, "categories": [{"alias": "bubbletea", "title": "Bubble Tea"}, {"alias": "desserts", "title": "Desserts"}, {"alias": "taiwanese", "title": "Taiwanese"}], "rating": 4.0, "coordinates": {"latitude": 40.75816, "longitude": -73.82982}, "transactions": ["delivery", "pickup"], "price": "$", "location": {"address1": "40-52 Main St", "address2": null, "address3": "", "city": "Flushing", "zip_code": "11345", "country": "US", "state": "NY", "display_address": ["40-52 Main St", "Flushing, NY 11345"]}, "phone": "+16462062848", "display_phone": "(646) 206-2848", "distance": 15042.453771392875}, {"id": "Q3fmTHT7zilDWtfzLK9lMA", "alias": "truedan-new-york-3", "name": "Truedan", "image_url": "https://s3-media3.fl.yelpcdn.com/bphoto/NTMcupIsLmiXqpjy1PuW_A/o.jpg", "is_closed": false, "url": "https://www.yelp.com/biz/truedan-new-york-3?adjust_creative=pDRNOeZqz2kRCxLFBJobsA&utm_campaign=yelp_api_v3&utm_medium=api_v3_business_search&utm_source=pDRNOeZqz2kRCxLFBJobsA", "review_count": 6, "categories": [{"alias": "bubbletea", "title": "Bubble Tea"}], "rating": 5.0, "coordinates": {"latitude": 40.7191742, "longitude": -73.9962197}, "transactions": ["delivery", "pickup"], "location": {"address1": "208 Grand St", "address2": null, "address3": null, "city": "New York", "zip_code": "10013", "country": "US", "state": "NY", "display_address": ["208 Grand St", "New York, NY 10013"]}, "phone": "+16465592886", "display_phone": "(646) 559-2886", "distance": 1535.2416140137602}, {"id": "bn0zZ9nT_j1INOwfpxWmEw", "alias": "tiger-sugar-flushing", "name": "Tiger Sugar", "image_url": "https://s3-media2.fl.yelpcdn.com/bphoto/HQJ0NLFK7TkBW4nXGFKPIA/o.jpg", "is_closed": false, "url": "https://www.yelp.com/biz/tiger-sugar-flushing?adjust_creative=pDRNOeZqz2kRCxLFBJobsA&utm_campaign=yelp_api_v3&utm_medium=api_v3_business_search&utm_source=pDRNOeZqz2kRCxLFBJobsA", "review_count": 655, "categories": [{"alias": "bubbletea", "title": "Bubble Tea"}, {"alias": "coffee", "title": "Coffee & Tea"}, {"alias": "taiwanese", "title": "Taiwanese"}], "rating": 4.0, "coordinates": {"latitude": 40.75918, "longitude": -73.83041}, "transactions": ["delivery", "pickup"], "price": "$", "location": {"address1": "4010 Main St", "address2": "Ste A", "address3": "", "city": "Flushing", "zip_code": "11354", "country": "US", "state": "NY", "display_address": ["4010 Main St", "Ste A", "Flushing, NY 11354"]}, "phone": "+13477324001", "display_phone": "(347) 732-4001", "distance": 15055.919990551978}, {"id": "_fP2QicVgPLZyL8s6M84Ig", "alias": "boba-guys-new-york-6", "name": "Boba Guys", "image_url": "https://s3-media2.fl.yelpcdn.com/bphoto/XPEi1NMzQRInx7muBJU4vQ/o.jpg", "is_closed": false, "url": "https://www.yelp.com/biz/boba-guys-new-york-6?adjust_creative=pDRNOeZqz2kRCxLFBJobsA&utm_campaign=yelp_api_v3&utm_medium=api_v3_business_search&utm_source=pDRNOeZqz2kRCxLFBJobsA", "review_count": 478, "categories": [{"alias": "bubbletea", "title": "Bubble Tea"}], "rating": 4.5, "coordinates": {"latitude": 40.71897, "longitude": -74.00102}, "transactions": [], "price": "$", "location": {"address1": "265 Canal St", "address2": "", "address3": null, "city": "New York", "zip_code": "10013", "country": "US", "state": "NY", "display_address": ["265 Canal St", "New York, NY 10013"]}, "phone": "", "display_phone": "", "distance": 1601.4722895917853}, {"id": "-yyCWn1iihJ3XpFNIq16-w", "alias": "shiny-tea-new-york", "name": "Shiny Tea", "image_url": "https://s3-media2.fl.yelpcdn.com/bphoto/RalkZ03XCb93jGd96Wg3Xw/o.jpg", "is_closed": false, "url": "https://www.yelp.com/biz/shiny-tea-new-york?adjust_creative=pDRNOeZqz2kRCxLFBJobsA&utm_campaign=yelp_api_v3&utm_medium=api_v3_business_search&utm_source=pDRNOeZqz2kRCxLFBJobsA", "review_count": 118, "categories": [{"alias": "bubbletea", "title": "Bubble Tea"}, {"alias": "tea", "title": "Tea Rooms"}], "rating": 4.5, "coordinates": {"latitude": 40.79823, "longitude": -73.9695}, "transactions": ["delivery", "pickup"], "price": "$", "location": {"address1": "2667 Broadway", "address2": "", "address3": null, "city": "New York", "zip_code": "10025", "country": "US", "state": "NY", "display_address": ["2667 Broadway", "New York, NY 10025"]}, "phone": "+12122226134", "display_phone": "(212) 222-6134", "distance": 10534.915393593266}, {"id": "1gXKzs-1EPxJ7gkHW6SDyg", "alias": "chun-yang-tea-flushing-new-york-flushing", "name": "Chun Yang Tea - Flushing New York", "image_url": "https://s3-media1.fl.yelpcdn.com/bphoto/kvOWtVxn7UjekGNCdXLgyg/o.jpg", "is_closed": false, "url": "https://www.yelp.com/biz/chun-yang-tea-flushing-new-york-flushing?adjust_creative=pDRNOeZqz2kRCxLFBJobsA&utm_campaign=yelp_api_v3&utm_medium=api_v3_business_search&utm_source=pDRNOeZqz2kRCxLFBJobsA", "review_count": 100, "categories": [{"alias": "bubbletea", "title": "Bubble Tea"}], "rating": 4.5, "coordinates": {"latitude": 40.758001, "longitude": -73.8299476772982}, "transactions": ["delivery", "pickup"], "location": {"address1": "133-41 41st Ave", "address2": null, "address3": "", "city": "Flushing", "zip_code": "11355", "country": "US", "state": "NY", "display_address": ["133-41 41st Ave", "Flushing, NY 11355"]}, "phone": "+13477329680", "display_phone": "(347) 732-9680", "distance": 15030.442035959277}, {"id": "jYjJNB9qlmd6dbYZBaDjfw", "alias": "biao-sugar-new-york", "name": "BIAO Sugar", "image_url": "https://s3-media4.fl.yelpcdn.com/bphoto/oK7g4v2RjF7SiKxdG6vsNg/o.jpg", "is_closed": false, "url": "https://www.yelp.com/biz/biao-sugar-new-york?adjust_creative=pDRNOeZqz2kRCxLFBJobsA&utm_campaign=yelp_api_v3&utm_medium=api_v3_business_search&utm_source=pDRNOeZqz2kRCxLFBJobsA", "review_count": 117, "categories": [{"alias": "bubbletea", "title": "Bubble Tea"}], "rating": 4.0, "coordinates": {"latitude": 40.7483, "longitude": -73.98847}, "transactions": ["delivery", "pickup"], "price": "$", "location": {"address1": "1271 Broadway", "address2": null, "address3": null, "city": "New York", "zip_code": "10001", "country": "US", "state": "NY", "display_address": ["1271 Broadway", "New York, NY 10001"]}, "phone": "+13476301794", "display_phone": "(347) 630-1794", "distance": 4781.773874312107}, {"id": "6Vb5PonmBLuOeDCn9FW-7w", "alias": "sip-n-play-brooklyn", "name": "Sip N' Play", "image_url": "https://s3-media1.fl.yelpcdn.com/bphoto/MHBknmdbbE7HkD_tubOFbQ/o.jpg", "is_closed": false, "url": "https://www.yelp.com/biz/sip-n-play-brooklyn?adjust_creative=pDRNOeZqz2kRCxLFBJobsA&utm_campaign=yelp_api_v3&utm_medium=api_v3_business_search&utm_source=pDRNOeZqz2kRCxLFBJobsA", "review_count": 28, "categories": [{"alias": "tabletopgames", "title": "Tabletop Games"}, {"alias": "coffee", "title": "Coffee & Tea"}, {"alias": "bubbletea", "title": "Bubble Tea"}], "rating": 5.0, "coordinates": {"latitude": 40.668095, "longitude": -73.986879}, "transactions": ["delivery", "pickup"], "location": {"address1": "471 5th Ave", "address2": null, "address3": "", "city": "Brooklyn", "zip_code": "11228", "country": "US", "state": "NY", "display_address": ["471 5th Ave", "Brooklyn, NY 11228"]}, "phone": "", "display_phone": "", "distance": 4195.372427963289}, {"id": "DbhBca8LzskjS0B-L4QfZg", "alias": "tiger-sugar-new-york", "name": "Tiger Sugar", "image_url": "https://s3-media4.fl.yelpcdn.com/bphoto/BTxeQoG_YdyREqt6ILUSWw/o.jpg", "is_closed": false, "url": "https://www.yelp.com/biz/tiger-sugar-new-york?adjust_creative=pDRNOeZqz2kRCxLFBJobsA&utm_campaign=yelp_api_v3&utm_medium=api_v3_business_search&utm_source=pDRNOeZqz2kRCxLFBJobsA", "review_count": 305, "categories": [{"alias": "bubbletea", "title": "Bubble Tea"}], "rating": 4.0, "coordinates": {"latitude": 40.717151, "longitude": -73.998231}, "transactions": ["delivery", "pickup"], "price": "$", "location": {"address1": "197 Canal St", "address2": null, "address3": "", "city": "New York", "zip_code": "10013", "country": "US", "state": "NY", "display_address": ["197 Canal St", "New York, NY 10013"]}, "phone": "+16465906299", "display_phone": "(646) 590-6299", "distance": 1340.9662434544782}, {"id": "XK7WxFNCbaRAvVZRQTNneg", "alias": "coco-fresh-tea-and-juice-brooklyn-5", "name": "CoCo Fresh Tea & Juice", "image_url": "https://s3-media3.fl.yelpcdn.com/bphoto/PPqBqswEPJq8t5KorzLoUQ/o.jpg", "is_closed": false, "url": "https://www.yelp.com/biz/coco-fresh-tea-and-juice-brooklyn-5?adjust_creative=pDRNOeZqz2kRCxLFBJobsA&utm_campaign=yelp_api_v3&utm_medium=api_v3_business_search&utm_source=pDRNOeZqz2kRCxLFBJobsA", "review_count": 34, "categories": [{"alias": "bubbletea", "title": "Bubble Tea"}], "rating": 4.5, "coordinates": {"latitude": 40.716693778273, "longitude": -73.959176056087}, "transactions": ["delivery", "pickup"], "price": "$", "location": {"address1": "218 Bedford Ave", "address2": "Store 1M", "address3": null, "city": "Brooklyn", "zip_code": "11249", "country": "US", "state": "NY", "display_address": ["218 Bedford Ave", "Store 1M", "Brooklyn, NY 11249"]}, "phone": "+13476894674", "display_phone": "(347) 689-4674", "distance": 3213.345912446673}, {"id": "ePZjA9S2xD6ZKpTfaH3Irg", "alias": "gong-cha-brooklyn", "name": "Gong Cha", "image_url": "https://s3-media3.fl.yelpcdn.com/bphoto/4lfIopMiXui_BOcSdGwTbQ/o.jpg", "is_closed": false, "url": "https://www.yelp.com/biz/gong-cha-brooklyn?adjust_creative=pDRNOeZqz2kRCxLFBJobsA&utm_campaign=yelp_api_v3&utm_medium=api_v3_business_search&utm_source=pDRNOeZqz2kRCxLFBJobsA", "review_count": 50, "categories": [{"alias": "bubbletea", "title": "Bubble Tea"}], "rating": 4.0, "coordinates": {"latitude": 40.69147, "longitude": -73.98643}, "transactions": ["delivery", "pickup"], "price": "$", "location": {"address1": "156 Lawrence St", "address2": null, "address3": "", "city": "Brooklyn", "zip_code": "11201", "country": "US", "state": "NY", "display_address": ["156 Lawrence St", "Brooklyn, NY 11201"]}, "phone": "+19179091207", "display_phone": "(917) 909-1207", "distance": 1681.8310531266886}, {"id": "9_PfzNxJP2iqqJs8hDubgw", "alias": "boba-guys-new-york", "name": "Boba Guys", "image_url": "https://s3-media4.fl.yelpcdn.com/bphoto/4xGJCNkMzf5f48rGNwNtSw/o.jpg", "is_closed": false, "url": "https://www.yelp.com/biz/boba-guys-new-york?adjust_creative=pDRNOeZqz2kRCxLFBJobsA&utm_campaign=yelp_api_v3&utm_medium=api_v3_business_search&utm_source=pDRNOeZqz2kRCxLFBJobsA", "review_count": 667, "categories": [{"alias": "coffee", "title": "Coffee & Tea"}, {"alias": "bubbletea", "title": "Bubble Tea"}], "rating": 4.0, "coordinates": {"latitude": 40.720657, "longitude": -73.984542}, "transactions": [], "price": "$", "location": {"address1": "23 Clinton St", "address2": "", "address3": "", "city": "New York", "zip_code": "10002", "country": "US", "state": "NY", "display_address": ["23 Clinton St", "New York, NY 10002"]}, "phone": "", "display_phone": "", "distance": 1877.0162035075523}, {"id": "g-K9RFraEyOoY3IgszBCeQ", "alias": "teazzi-tea-shop-new-york", "name": "Teazzi Tea Shop", "image_url": "https://s3-media2.fl.yelpcdn.com/bphoto/oRPgKtWWDqJ7yN4IhFbF8Q/o.jpg", "is_closed": false, "url": "https://www.yelp.com/biz/teazzi-tea-shop-new-york?adjust_creative=pDRNOeZqz2kRCxLFBJobsA&utm_campaign=yelp_api_v3&utm_medium=api_v3_business_search&utm_source=pDRNOeZqz2kRCxLFBJobsA", "review_count": 109, "categories": [{"alias": "bubbletea", "title": "Bubble Tea"}, {"alias": "tea", "title": "Tea Rooms"}], "rating": 4.0, "coordinates": {"latitude": 40.7371, "longitude": -73.99582}, "transactions": ["delivery", "pickup"], "location": {"address1": "47 W 14th St", "address2": "Ste 3", "address3": "", "city": "New York", "zip_code": "10011", "country": "US", "state": "NY", "display_address": ["47 W 14th St", "Ste 3", "New York, NY 10011"]}, "phone": "+19172681999", "display_phone": "(917) 268-1999", "distance": 3539.121874712469}, {"id": "IzCbVels5WGv2Jc3mAYVbw", "alias": "boba-guys-new-york-2", "name": "Boba Guys", "image_url": "https://s3-media1.fl.yelpcdn.com/bphoto/dpC83ihSVSnekX7EUad56Q/o.jpg", "is_closed": false, "url": "https://www.yelp.com/biz/boba-guys-new-york-2?adjust_creative=pDRNOeZqz2kRCxLFBJobsA&utm_campaign=yelp_api_v3&utm_medium=api_v3_business_search&utm_source=pDRNOeZqz2kRCxLFBJobsA", "review_count": 455, "categories": [{"alias": "bubbletea", "title": "Bubble Tea"}], "rating": 4.0, "coordinates": {"latitude": 40.73014, "longitude": -73.9941599}, "transactions": [], "price": "$", "location": {"address1": "11 Waverly Pl", "address2": "", "address3": null, "city": "New York", "zip_code": "10002", "country": "US", "state": "NY", "display_address": ["11 Waverly Pl", "New York, NY 10002"]}, "phone": "+14159672622", "display_phone": "(415) 967-2622", "distance": 2751.3405243243546}, {"id": "AYjVpQ5jYz5gJJqXh_B_CA", "alias": "teado-tea-shop-new-york-6", "name": "Teado Tea Shop", "image_url": "https://s3-media3.fl.yelpcdn.com/bphoto/nuL5fOi1cZKvv_xoKwMy2w/o.jpg", "is_closed": false, "url": "https://www.yelp.com/biz/teado-tea-shop-new-york-6?adjust_creative=pDRNOeZqz2kRCxLFBJobsA&utm_campaign=yelp_api_v3&utm_medium=api_v3_business_search&utm_source=pDRNOeZqz2kRCxLFBJobsA", "review_count": 349, "categories": [{"alias": "coffee", "title": "Coffee & Tea"}, {"alias": "juicebars", "title": "Juice Bars & Smoothies"}, {"alias": "bubbletea", "title": "Bubble Tea"}], "rating": 4.5, "coordinates": {"latitude": 40.7172143, "longitude": -73.9949616}, "transactions": [], "price": "$", "location": {"address1": "145D Hester St", "address2": "", "address3": "", "city": "New York", "zip_code": "10002", "country": "US", "state": "NY", "display_address": ["145D Hester St", "New York, NY 10002"]}, "phone": "+12122267687", "display_phone": "(212) 226-7687", "distance": 1309.9120600918639}, {"id": "DjKAV1M7HWGGyzsfqUrcFw", "alias": "debutea-new-york", "name": "Debutea", "image_url": "https://s3-media1.fl.yelpcdn.com/bphoto/5KUFD16FfjSIv5LhG4_kSw/o.jpg", "is_closed": false, "url": "https://www.yelp.com/biz/debutea-new-york?adjust_creative=pDRNOeZqz2kRCxLFBJobsA&utm_campaign=yelp_api_v3&utm_medium=api_v3_business_search&utm_source=pDRNOeZqz2kRCxLFBJobsA", "review_count": 170, "categories": [{"alias": "bubbletea", "title": "Bubble Tea"}, {"alias": "coffee", "title": "Coffee & Tea"}, {"alias": "juicebars", "title": "Juice Bars & Smoothies"}], "rating": 4.0, "coordinates": {"latitude": 40.729188, "longitude": -73.9993244}, "transactions": ["delivery", "pickup"], "price": "$", "location": {"address1": "217 Thompson St", "address2": null, "address3": "", "city": "New York", "zip_code": "10012", "country": "US", "state": "NY", "display_address": ["217 Thompson St", "New York, NY 10012"]}, "phone": "+16467670147", "display_phone": "(646) 767-0147", "distance": 2673.9470187963343}, {"id": "1ztRKl0Iqpm2ILh1e3YIUw", "alias": "tidal-tea-manhattan", "name": "Tidal Tea", "image_url": "https://s3-media2.fl.yelpcdn.com/bphoto/glx0ODpwlkMxELV4_WpKIg/o.jpg", "is_closed": false, "url": "https://www.yelp.com/biz/tidal-tea-manhattan?adjust_creative=pDRNOeZqz2kRCxLFBJobsA&utm_campaign=yelp_api_v3&utm_medium=api_v3_business_search&utm_source=pDRNOeZqz2kRCxLFBJobsA", "review_count": 54, "categories": [{"alias": "bubbletea", "title": "Bubble Tea"}], "rating": 4.5, "coordinates": {"latitude": 40.819199, "longitude": -73.95243}, "transactions": ["delivery", "pickup"], "price": "$", "location": {"address1": "1520 Amsterdam Ave", "address2": null, "address3": "", "city": "Manhattan", "zip_code": "10031", "country": "US", "state": "NY", "display_address": ["1520 Amsterdam Ave", "Manhattan, NY 10031"]}, "phone": "+16467264868", "display_phone": "(646) 726-4868", "distance": 13132.593351580692}, {"id": "FKjAriOhhGZJSlkqrk8zWg", "alias": "i-milky-\u6c90\u767d-new-york", "name": "I\u2019Milky \u6c90\u767d", "image_url": "https://s3-media4.fl.yelpcdn.com/bphoto/3sHnWf2QTlcXfxvb6L8HWA/o.jpg", "is_closed": false, "url": "https://www.yelp.com/biz/i-milky-%E6%B2%90%E7%99%BD-new-york?adjust_creative=pDRNOeZqz2kRCxLFBJobsA&utm_campaign=yelp_api_v3&utm_medium=api_v3_business_search&utm_source=pDRNOeZqz2kRCxLFBJobsA", "review_count": 87, "categories": [{"alias": "bubbletea", "title": "Bubble Tea"}, {"alias": "coffee", "title": "Coffee & Tea"}, {"alias": "taiwanese", "title": "Taiwanese"}], "rating": 4.5, "coordinates": {"latitude": 40.7513413, "longitude": -73.9864468}, "transactions": [], "price": "$", "location": {"address1": "992 6th Ave", "address2": "", "address3": null, "city": "New York", "zip_code": "10018", "country": "US", "state": "NY", "display_address": ["992 6th Ave", "New York, NY 10018"]}, "phone": "+12122396712", "display_phone": "(212) 239-6712", "distance": 5158.776808745301}, {"id": "RW1PyIjuGQfLCAhK0lhxnQ", "alias": "tiger-sugar-brooklyn", "name": "Tiger Sugar", "image_url": "https://s3-media3.fl.yelpcdn.com/bphoto/FbAHChGK_4lPJ7ADWnpd6A/o.jpg", "is_closed": false, "url": "https://www.yelp.com/biz/tiger-sugar-brooklyn?adjust_creative=pDRNOeZqz2kRCxLFBJobsA&utm_campaign=yelp_api_v3&utm_medium=api_v3_business_search&utm_source=pDRNOeZqz2kRCxLFBJobsA", "review_count": 148, "categories": [{"alias": "coffee", "title": "Coffee & Tea"}, {"alias": "bubbletea", "title": "Bubble Tea"}, {"alias": "taiwanese", "title": "Taiwanese"}], "rating": 4.0, "coordinates": {"latitude": 40.6358699982869, "longitude": -74.0089598670602}, "transactions": ["delivery", "pickup"], "price": "$", "location": {"address1": "5903 8th Ave", "address2": "", "address3": null, "city": "Brooklyn", "zip_code": "11220", "country": "US", "state": "NY", "display_address": ["5903 8th Ave", "Brooklyn, NY 11220"]}, "phone": "+17184382358", "display_phone": "(718) 438-2358", "distance": 7834.626425778172}, {"id": "6wik3tA4cRw7NA9KvNHidw", "alias": "kung-fu-tea-brooklyn-3", "name": "Kung Fu Tea", "image_url": "https://s3-media1.fl.yelpcdn.com/bphoto/4hiSBRc86zeUvxqxVn0ImA/o.jpg", "is_closed": false, "url": "https://www.yelp.com/biz/kung-fu-tea-brooklyn-3?adjust_creative=pDRNOeZqz2kRCxLFBJobsA&utm_campaign=yelp_api_v3&utm_medium=api_v3_business_search&utm_source=pDRNOeZqz2kRCxLFBJobsA", "review_count": 107, "categories": [{"alias": "coffee", "title": "Coffee & Tea"}, {"alias": "bubbletea", "title": "Bubble Tea"}, {"alias": "juicebars", "title": "Juice Bars & Smoothies"}], "rating": 4.0, "coordinates": {"latitude": 40.6894028198824, "longitude": -73.9860078509186}, "transactions": ["delivery", "pickup"], "price": "$", "location": {"address1": "40 Hoyt St", "address2": null, "address3": "", "city": "Brooklyn", "zip_code": "11201", "country": "US", "state": "NY", "display_address": ["40 Hoyt St", "Brooklyn, NY 11201"]}, "phone": "+13472940232", "display_phone": "(347) 294-0232", "distance": 1915.672027406771}, {"id": "SU4eCPWGHu-mrgzU9zWQdw", "alias": "moge-tee-bayside-bayside", "name": "Moge Tee - Bayside", "image_url": "https://s3-media4.fl.yelpcdn.com/bphoto/j-yO_In556MOcW1vsh1kLQ/o.jpg", "is_closed": false, "url": "https://www.yelp.com/biz/moge-tee-bayside-bayside?adjust_creative=pDRNOeZqz2kRCxLFBJobsA&utm_campaign=yelp_api_v3&utm_medium=api_v3_business_search&utm_source=pDRNOeZqz2kRCxLFBJobsA", "review_count": 36, "categories": [{"alias": "coffee", "title": "Coffee & Tea"}, {"alias": "bubbletea", "title": "Bubble Tea"}], "rating": 4.5, "coordinates": {"latitude": 40.760879, "longitude": -73.769338}, "transactions": ["delivery", "pickup"], "location": {"address1": "4319 Bell Blvd", "address2": "", "address3": "", "city": "Bayside", "zip_code": "11364", "country": "US", "state": "NY", "display_address": ["4319 Bell Blvd", "Bayside, NY 11364"]}, "phone": "+13478368831", "display_phone": "(347) 836-8831", "distance": 19931.658788022818}, {"id": "xIS10vUCI-za3UdYX8N1bw", "alias": "teadora-brooklyn", "name": "Teadora", "image_url": "https://s3-media4.fl.yelpcdn.com/bphoto/vx1i6O60psngs5zrVVpVyg/o.jpg", "is_closed": false, "url": "https://www.yelp.com/biz/teadora-brooklyn?adjust_creative=pDRNOeZqz2kRCxLFBJobsA&utm_campaign=yelp_api_v3&utm_medium=api_v3_business_search&utm_source=pDRNOeZqz2kRCxLFBJobsA", "review_count": 71, "categories": [{"alias": "bubbletea", "title": "Bubble Tea"}, {"alias": "tabletopgames", "title": "Tabletop Games"}], "rating": 4.5, "coordinates": {"latitude": 40.62975, "longitude": -74.00997}, "transactions": ["delivery", "pickup"], "price": "$", "location": {"address1": "6609 Fort Hamilton Pkwy", "address2": "", "address3": null, "city": "Brooklyn", "zip_code": "11219", "country": "US", "state": "NY", "display_address": ["6609 Fort Hamilton Pkwy", "Brooklyn, NY 11219"]}, "phone": "+17182382828", "display_phone": "(718) 238-2828", "distance": 8521.03657685309}, {"id": "SqVHETmH6bf3rPKmdftvvw", "alias": "ten-rens-tea-time-new-york-2", "name": "Ten Ren's Tea Time", "image_url": "https://s3-media4.fl.yelpcdn.com/bphoto/VXV4CnpyE2pzjO0DmoKbdg/o.jpg", "is_closed": false, "url": "https://www.yelp.com/biz/ten-rens-tea-time-new-york-2?adjust_creative=pDRNOeZqz2kRCxLFBJobsA&utm_campaign=yelp_api_v3&utm_medium=api_v3_business_search&utm_source=pDRNOeZqz2kRCxLFBJobsA", "review_count": 640, "categories": [{"alias": "bubbletea", "title": "Bubble Tea"}], "rating": 4.0, "coordinates": {"latitude": 40.7163819, "longitude": -73.9982683}, "transactions": [], "price": "$", "location": {"address1": "73 Mott St", "address2": "", "address3": "", "city": "New York", "zip_code": "10013", "country": "US", "state": "NY", "display_address": ["73 Mott St", "New York, NY 10013"]}, "phone": "+12127327178", "display_phone": "(212) 732-7178", "distance": 1261.4503129961038}, {"id": "oMmCweoXyDYFUJGWxNteTQ", "alias": "vivi-bubble-tea-new-york-15", "name": "Vivi Bubble Tea", "image_url": "https://s3-media2.fl.yelpcdn.com/bphoto/Pae6zA4b6F_LKlNH4TfipQ/o.jpg", "is_closed": false, "url": "https://www.yelp.com/biz/vivi-bubble-tea-new-york-15?adjust_creative=pDRNOeZqz2kRCxLFBJobsA&utm_campaign=yelp_api_v3&utm_medium=api_v3_business_search&utm_source=pDRNOeZqz2kRCxLFBJobsA", "review_count": 273, "categories": [{"alias": "bubbletea", "title": "Bubble Tea"}], "rating": 4.0, "coordinates": {"latitude": 40.722714, "longitude": -73.989102}, "transactions": ["delivery", "pickup"], "price": "$", "location": {"address1": "205 Allen St", "address2": "", "address3": "", "city": "New York", "zip_code": "10002", "country": "US", "state": "NY", "display_address": ["205 Allen St", "New York, NY 10002"]}, "phone": "+15512214795", "display_phone": "(551) 221-4795", "distance": 1969.4534367910428}, {"id": "_kIdaUq7p7wYkMQ1zkeNEw", "alias": "hawa-smoothies-and-bubble-tea-downtown-brooklyn", "name": "Hawa Smoothies & Bubble Tea", "image_url": "https://s3-media2.fl.yelpcdn.com/bphoto/-4F3qAg3bN36Ap6kBSp4Gg/o.jpg", "is_closed": false, "url": "https://www.yelp.com/biz/hawa-smoothies-and-bubble-tea-downtown-brooklyn?adjust_creative=pDRNOeZqz2kRCxLFBJobsA&utm_campaign=yelp_api_v3&utm_medium=api_v3_business_search&utm_source=pDRNOeZqz2kRCxLFBJobsA", "review_count": 70, "categories": [{"alias": "bubbletea", "title": "Bubble Tea"}, {"alias": "juicebars", "title": "Juice Bars & Smoothies"}, {"alias": "acaibowls", "title": "Acai Bowls"}], "rating": 4.5, "coordinates": {"latitude": 40.692105, "longitude": -73.987059}, "transactions": [], "price": "$", "location": {"address1": "44 Willoughby St", "address2": "", "address3": "", "city": "Downtown Brooklyn", "zip_code": "11201", "country": "US", "state": "NY", "display_address": ["44 Willoughby St", "Downtown Brooklyn, NY 11201"]}, "phone": "+16462047818", "display_phone": "(646) 204-7818", "distance": 1604.517577173498}, {"id": "i2ujJczPPvavM7YrFqFl6A", "alias": "hawa-smoothies-and-bubble-tea-brooklyn-3", "name": "Hawa Smoothies & Bubble Tea", "image_url": "https://s3-media2.fl.yelpcdn.com/bphoto/lhjvUemBqOPoYYAEtg8Ezw/o.jpg", "is_closed": false, "url": "https://www.yelp.com/biz/hawa-smoothies-and-bubble-tea-brooklyn-3?adjust_creative=pDRNOeZqz2kRCxLFBJobsA&utm_campaign=yelp_api_v3&utm_medium=api_v3_business_search&utm_source=pDRNOeZqz2kRCxLFBJobsA", "review_count": 33, "categories": [{"alias": "juicebars", "title": "Juice Bars & Smoothies"}, {"alias": "bubbletea", "title": "Bubble Tea"}, {"alias": "coffee", "title": "Coffee & Tea"}], "rating": 4.5, "coordinates": {"latitude": 40.7086323296893, "longitude": -73.9579670503736}, "transactions": ["delivery", "pickup"], "price": "$", "location": {"address1": "295 Broadway", "address2": "", "address3": "", "city": "Brooklyn", "zip_code": "11211", "country": "US", "state": "NY", "display_address": ["295 Broadway", "Brooklyn, NY 11211"]}, "phone": "+19293379437", "display_phone": "(929) 337-9437", "distance": 3082.4381913091493}, {"id": "WHRHK3S1mQc3PmhwsGRvbw", "alias": "bibble-and-sip-new-york-2", "name": "Bibble & Sip", "image_url": "https://s3-media3.fl.yelpcdn.com/bphoto/qvBB2GFH0zE8NFszubO2pg/o.jpg", "is_closed": false, "url": "https://www.yelp.com/biz/bibble-and-sip-new-york-2?adjust_creative=pDRNOeZqz2kRCxLFBJobsA&utm_campaign=yelp_api_v3&utm_medium=api_v3_business_search&utm_source=pDRNOeZqz2kRCxLFBJobsA", "review_count": 4787, "categories": [{"alias": "coffee", "title": "Coffee & Tea"}, {"alias": "bakeries", "title": "Bakeries"}], "rating": 4.5, "coordinates": {"latitude": 40.76282, "longitude": -73.98518}, "transactions": ["delivery", "pickup"], "price": "$", "location": {"address1": "253 W 51st St", "address2": "", "address3": "", "city": "New York", "zip_code": "10019", "country": "US", "state": "NY", "display_address": ["253 W 51st St", "New York, NY 10019"]}, "phone": "+16466495116", "display_phone": "(646) 649-5116", "distance": 6427.9212521553545}, {"id": "PgWJurmDSh8-elGUriZ1UA", "alias": "rabbit-rabbit-tea-new-york", "name": "Rabbit Rabbit Tea", "image_url": "https://s3-media4.fl.yelpcdn.com/bphoto/VFtxaUi6nexW4JyTjVTvkw/o.jpg", "is_closed": false, "url": "https://www.yelp.com/biz/rabbit-rabbit-tea-new-york?adjust_creative=pDRNOeZqz2kRCxLFBJobsA&utm_campaign=yelp_api_v3&utm_medium=api_v3_business_search&utm_source=pDRNOeZqz2kRCxLFBJobsA", "review_count": 119, "categories": [{"alias": "bubbletea", "title": "Bubble Tea"}, {"alias": "juicebars", "title": "Juice Bars & Smoothies"}, {"alias": "taiwanese", "title": "Taiwanese"}], "rating": 4.0, "coordinates": {"latitude": 40.73982, "longitude": -73.98587}, "transactions": ["delivery", "pickup"], "price": "$", "location": {"address1": "110-112 E 23rd St", "address2": "", "address3": null, "city": "New York", "zip_code": "10010", "country": "US", "state": "NY", "display_address": ["110-112 E 23rd St", "New York, NY 10010"]}, "phone": "", "display_phone": "", "distance": 3873.6720733383454}, {"id": "gMVFC--iXd29dM6QTMbp3w", "alias": "yi-fang-taiwan-fruit-tea-long-island-city", "name": "Yi Fang Taiwan Fruit Tea", "image_url": "https://s3-media2.fl.yelpcdn.com/bphoto/0L_9eVJWLpLCM9aLw5tkhw/o.jpg", "is_closed": false, "url": "https://www.yelp.com/biz/yi-fang-taiwan-fruit-tea-long-island-city?adjust_creative=pDRNOeZqz2kRCxLFBJobsA&utm_campaign=yelp_api_v3&utm_medium=api_v3_business_search&utm_source=pDRNOeZqz2kRCxLFBJobsA", "review_count": 72, "categories": [{"alias": "bubbletea", "title": "Bubble Tea"}, {"alias": "tea", "title": "Tea Rooms"}], "rating": 4.0, "coordinates": {"latitude": 40.74782, "longitude": -73.94769}, "transactions": ["delivery", "pickup"], "price": "$", "location": {"address1": "44-68 21st St", "address2": "", "address3": null, "city": "Long Island City", "zip_code": "11101", "country": "US", "state": "NY", "display_address": ["44-68 21st St", "Long Island City, NY 11101"]}, "phone": "+13477384143", "display_phone": "(347) 738-4143", "distance": 6135.414074833523}, {"id": "CnFp2AUFkzsnfh7MQD3yag", "alias": "boba-fries-elmhurst", "name": "Boba Fries", "image_url": "https://s3-media3.fl.yelpcdn.com/bphoto/CwFGcdrKPuewUn2GPpuzng/o.jpg", "is_closed": false, "url": "https://www.yelp.com/biz/boba-fries-elmhurst?adjust_creative=pDRNOeZqz2kRCxLFBJobsA&utm_campaign=yelp_api_v3&utm_medium=api_v3_business_search&utm_source=pDRNOeZqz2kRCxLFBJobsA", "review_count": 45, "categories": [{"alias": "bubbletea", "title": "Bubble Tea"}, {"alias": "hotdogs", "title": "Fast Food"}], "rating": 4.5, "coordinates": {"latitude": 40.7432094, "longitude": -73.8830931}, "transactions": [], "price": "$", "location": {"address1": "8121 Broadway", "address2": null, "address3": "", "city": "Elmhurst", "zip_code": "11373", "country": "US", "state": "NY", "display_address": ["8121 Broadway", "Elmhurst, NY 11373"]}, "phone": "+17188988868", "display_phone": "(718) 898-8868", "distance": 10268.667857146653}, {"id": "OQEk6ygOch6EZrBs-lwUiw", "alias": "hui-tea-new-york", "name": "Hui Tea", "image_url": "https://s3-media2.fl.yelpcdn.com/bphoto/EFaeKHZu2me5Umiy804iwg/o.jpg", "is_closed": false, "url": "https://www.yelp.com/biz/hui-tea-new-york?adjust_creative=pDRNOeZqz2kRCxLFBJobsA&utm_campaign=yelp_api_v3&utm_medium=api_v3_business_search&utm_source=pDRNOeZqz2kRCxLFBJobsA", "review_count": 61, "categories": [{"alias": "bubbletea", "title": "Bubble Tea"}], "rating": 4.5, "coordinates": {"latitude": 40.7178490006422, "longitude": -74.0003345534205}, "transactions": [], "price": "$", "location": {"address1": "240A Canal St", "address2": "", "address3": null, "city": "New York", "zip_code": "10013", "country": "US", "state": "NY", "display_address": ["240A Canal St", "New York, NY 10013"]}, "phone": "+19172658697", "display_phone": "(917) 265-8697", "distance": 1470.2670013837817}, {"id": "bvuPipiMPe5FURKZh06Zxg", "alias": "tea-and-milk-astoria", "name": "Tea and Milk", "image_url": "https://s3-media3.fl.yelpcdn.com/bphoto/b3FHw1yZ7K5lcXp-J13Zww/o.jpg", "is_closed": false, "url": "https://www.yelp.com/biz/tea-and-milk-astoria?adjust_creative=pDRNOeZqz2kRCxLFBJobsA&utm_campaign=yelp_api_v3&utm_medium=api_v3_business_search&utm_source=pDRNOeZqz2kRCxLFBJobsA", "review_count": 404, "categories": [{"alias": "coffee", "title": "Coffee & Tea"}, {"alias": "bubbletea", "title": "Bubble Tea"}, {"alias": "cafes", "title": "Cafes"}], "rating": 4.5, "coordinates": {"latitude": 40.75904, "longitude": -73.92631}, "transactions": ["delivery", "pickup"], "price": "$", "location": {"address1": "32-02 34th Ave", "address2": "", "address3": "", "city": "Astoria", "zip_code": "11106", "country": "US", "state": "NY", "display_address": ["32-02 34th Ave", "Astoria, NY 11106"]}, "phone": "+13479212056", "display_phone": "(347) 921-2056", "distance": 8272.333781428095}, {"id": "jxzBjnWg1SRMC8eERbE7LA", "alias": "jupioca-new-york-10", "name": "Jupioca", "image_url": "https://s3-media2.fl.yelpcdn.com/bphoto/5D07zj0rmGp4cjkQHQm8aQ/o.jpg", "is_closed": false, "url": "https://www.yelp.com/biz/jupioca-new-york-10?adjust_creative=pDRNOeZqz2kRCxLFBJobsA&utm_campaign=yelp_api_v3&utm_medium=api_v3_business_search&utm_source=pDRNOeZqz2kRCxLFBJobsA", "review_count": 42, "categories": [{"alias": "acaibowls", "title": "Acai Bowls"}, {"alias": "bubbletea", "title": "Bubble Tea"}, {"alias": "juicebars", "title": "Juice Bars & Smoothies"}], "rating": 4.0, "coordinates": {"latitude": 40.77038, "longitude": -73.95142}, "transactions": ["delivery", "pickup"], "price": "$", "location": {"address1": "1457 York Ave", "address2": "", "address3": null, "city": "New York", "zip_code": "10075", "country": "US", "state": "NY", "display_address": ["1457 York Ave", "New York, NY 10075"]}, "phone": "", "display_phone": "", "distance": 8073.582229760144}, {"id": "xuc4XCx5Af-nOgQtRtYVoA", "alias": "mr-wish-brooklyn-2", "name": "Mr. Wish", "image_url": "https://s3-media2.fl.yelpcdn.com/bphoto/Bd64H00hCYdOgWjKMX7Cfg/o.jpg", "is_closed": false, "url": "https://www.yelp.com/biz/mr-wish-brooklyn-2?adjust_creative=pDRNOeZqz2kRCxLFBJobsA&utm_campaign=yelp_api_v3&utm_medium=api_v3_business_search&utm_source=pDRNOeZqz2kRCxLFBJobsA", "review_count": 61, "categories": [{"alias": "bubbletea", "title": "Bubble Tea"}, {"alias": "juicebars", "title": "Juice Bars & Smoothies"}, {"alias": "tea", "title": "Tea Rooms"}], "rating": 4.5, "coordinates": {"latitude": 40.679953856395, "longitude": -73.9780936737929}, "transactions": ["delivery", "pickup"], "price": "$", "location": {"address1": "86 5th Ave", "address2": "", "address3": null, "city": "Brooklyn", "zip_code": "11217", "country": "US", "state": "NY", "display_address": ["86 5th Ave", "Brooklyn, NY 11217"]}, "phone": "+19172169689", "display_phone": "(917) 216-9689", "distance": 3146.3570992977156}, {"id": "g49LgowVuYK3mNFAU75cww", "alias": "vivi-bubble-tea-brooklyn-5", "name": "Vivi Bubble Tea", "image_url": "https://s3-media1.fl.yelpcdn.com/bphoto/QB6NMqgznfVddM2GUmZ3Mw/o.jpg", "is_closed": false, "url": "https://www.yelp.com/biz/vivi-bubble-tea-brooklyn-5?adjust_creative=pDRNOeZqz2kRCxLFBJobsA&utm_campaign=yelp_api_v3&utm_medium=api_v3_business_search&utm_source=pDRNOeZqz2kRCxLFBJobsA", "review_count": 40, "categories": [{"alias": "bubbletea", "title": "Bubble Tea"}], "rating": 4.0, "coordinates": {"latitude": 40.6906, "longitude": -73.99178}, "transactions": [], "price": "$", "location": {"address1": "113 Court St", "address2": "Ste A", "address3": null, "city": "Brooklyn", "zip_code": "11201", "country": "US", "state": "NY", "display_address": ["113 Court St", "Ste A", "Brooklyn, NY 11201"]}, "phone": "+13473293111", "display_phone": "(347) 329-3111", "distance": 1670.2385903554753}, {"id": "PQymZd-h0Y9QXLzFyyd1Zg", "alias": "mee-cafe-new-york", "name": "Mee Cafe", "image_url": "https://s3-media4.fl.yelpcdn.com/bphoto/fRrzWc-yDAg-CMhtth4_lw/o.jpg", "is_closed": false, "url": "https://www.yelp.com/biz/mee-cafe-new-york?adjust_creative=pDRNOeZqz2kRCxLFBJobsA&utm_campaign=yelp_api_v3&utm_medium=api_v3_business_search&utm_source=pDRNOeZqz2kRCxLFBJobsA", "review_count": 79, "categories": [{"alias": "cafes", "title": "Cafes"}, {"alias": "bubbletea", "title": "Bubble Tea"}], "rating": 4.5, "coordinates": {"latitude": 40.713053, "longitude": -73.99021}, "transactions": [], "price": "$", "location": {"address1": "26 Rutgers St", "address2": "", "address3": "", "city": "New York", "zip_code": "10002", "country": "US", "state": "NY", "display_address": ["26 Rutgers St", "New York, NY 10002"]}, "phone": "+16469960029", "display_phone": "(646) 996-0029", "distance": 913.314562434158}, {"id": "z6tXIo_91n3GiBM-ySsgIQ", "alias": "kung-fu-tea-new-york-35", "name": "Kung Fu Tea", "image_url": "https://s3-media4.fl.yelpcdn.com/bphoto/MVGuo_a3yWYBmF1Uj1bFPw/o.jpg", "is_closed": false, "url": "https://www.yelp.com/biz/kung-fu-tea-new-york-35?adjust_creative=pDRNOeZqz2kRCxLFBJobsA&utm_campaign=yelp_api_v3&utm_medium=api_v3_business_search&utm_source=pDRNOeZqz2kRCxLFBJobsA", "review_count": 243, "categories": [{"alias": "bubbletea", "title": "Bubble Tea"}, {"alias": "coffee", "title": "Coffee & Tea"}, {"alias": "juicebars", "title": "Juice Bars & Smoothies"}], "rating": 4.5, "coordinates": {"latitude": 40.72885, "longitude": -73.98857}, "transactions": ["delivery"], "price": "$", "location": {"address1": "28 St Marks Pl", "address2": "", "address3": "", "city": "New York", "zip_code": "10003", "country": "US", "state": "NY", "display_address": ["28 St Marks Pl", "New York, NY 10003"]}, "phone": "+19172854285", "display_phone": "(917) 285-4285", "distance": 2644.3238065383225}, {"id": "7ov7U0U9UbzRjlLw7wL9bg", "alias": "the-teapsy-new-york-astoria", "name": "The Teapsy New York", "image_url": "https://s3-media4.fl.yelpcdn.com/bphoto/ikZd8vrLqUMz756M8tw1Xw/o.jpg", "is_closed": false, "url": "https://www.yelp.com/biz/the-teapsy-new-york-astoria?adjust_creative=pDRNOeZqz2kRCxLFBJobsA&utm_campaign=yelp_api_v3&utm_medium=api_v3_business_search&utm_source=pDRNOeZqz2kRCxLFBJobsA", "review_count": 145, "categories": [{"alias": "coffee", "title": "Coffee & Tea"}, {"alias": "bubbletea", "title": "Bubble Tea"}, {"alias": "juicebars", "title": "Juice Bars & Smoothies"}], "rating": 4.5, "coordinates": {"latitude": 40.7658014094971, "longitude": -73.9191635864046}, "transactions": [], "price": "$$", "location": {"address1": "33-17 30th Ave", "address2": "", "address3": null, "city": "Astoria", "zip_code": "11103", "country": "US", "state": "NY", "display_address": ["33-17 30th Ave", "Astoria, NY 11103"]}, "phone": "+19293280090", "display_phone": "(929) 328-0090", "distance": 9225.61423488534}, {"id": "W2B8KfNllQqIv_TyfCv85Q", "alias": "gong-cha-new-york-9", "name": "Gong Cha", "image_url": "https://s3-media1.fl.yelpcdn.com/bphoto/NxsPXGHpWD15tmh0bX6BTA/o.jpg", "is_closed": false, "url": "https://www.yelp.com/biz/gong-cha-new-york-9?adjust_creative=pDRNOeZqz2kRCxLFBJobsA&utm_campaign=yelp_api_v3&utm_medium=api_v3_business_search&utm_source=pDRNOeZqz2kRCxLFBJobsA", "review_count": 406, "categories": [{"alias": "bubbletea", "title": "Bubble Tea"}], "rating": 4.0, "coordinates": {"latitude": 40.7523752091444, "longitude": -73.98557536304}, "transactions": ["delivery", "pickup"], "price": "$", "location": {"address1": "75 W 38th St", "address2": null, "address3": "", "city": "New York", "zip_code": "10018", "country": "US", "state": "NY", "display_address": ["75 W 38th St", "New York, NY 10018"]}, "phone": "+12123982716", "display_phone": "(212) 398-2716", "distance": 5269.86204791477}, {"id": "lc8oROJ67VcPqJd33zDvOg", "alias": "tea-magic-new-york-4", "name": "Tea Magic", "image_url": "https://s3-media4.fl.yelpcdn.com/bphoto/GBCCsCdcLU6DhkjacrRYLw/o.jpg", "is_closed": false, "url": "https://www.yelp.com/biz/tea-magic-new-york-4?adjust_creative=pDRNOeZqz2kRCxLFBJobsA&utm_campaign=yelp_api_v3&utm_medium=api_v3_business_search&utm_source=pDRNOeZqz2kRCxLFBJobsA", "review_count": 21, "categories": [{"alias": "bubbletea", "title": "Bubble Tea"}], "rating": 4.0, "coordinates": {"latitude": 40.7793834898764, "longitude": -73.9829937368632}, "transactions": ["delivery", "pickup"], "location": {"address1": "239 W 72nd St", "address2": "", "address3": null, "city": "New York", "zip_code": "10023", "country": "US", "state": "NY", "display_address": ["239 W 72nd St", "New York, NY 10023"]}, "phone": "+12127122227", "display_phone": "(212) 712-2227", "distance": 8276.518443749042}, {"id": "0aAJxKYZdgQxD7oznXnc4w", "alias": "something-sweet-staten-island-2", "name": "Something Sweet", "image_url": "https://s3-media4.fl.yelpcdn.com/bphoto/brR1LQohpFi9IcjDJaiKNw/o.jpg", "is_closed": false, "url": "https://www.yelp.com/biz/something-sweet-staten-island-2?adjust_creative=pDRNOeZqz2kRCxLFBJobsA&utm_campaign=yelp_api_v3&utm_medium=api_v3_business_search&utm_source=pDRNOeZqz2kRCxLFBJobsA", "review_count": 95, "categories": [{"alias": "icecream", "title": "Ice Cream & Frozen Yogurt"}, {"alias": "desserts", "title": "Desserts"}, {"alias": "bubbletea", "title": "Bubble Tea"}], "rating": 4.0, "coordinates": {"latitude": 40.57155, "longitude": -74.11216}, "transactions": ["delivery", "pickup"], "price": "$", "location": {"address1": "314 New Dorp Ln", "address2": null, "address3": "", "city": "Staten Island", "zip_code": "10306", "country": "US", "state": "NY", "display_address": ["314 New Dorp Ln", "Staten Island, NY 10306"]}, "phone": "+17189878088", "display_phone": "(718) 987-8088", "distance": 17907.033305104862}, {"id": "gzfWa4dzZOfLOxnOvuGKlA", "alias": "yifang-taiwan-fruit-tea-new-york-9", "name": "Yifang Taiwan Fruit Tea", "image_url": "https://s3-media3.fl.yelpcdn.com/bphoto/rCQOpV_CMx0BIslXFz5woQ/o.jpg", "is_closed": false, "url": "https://www.yelp.com/biz/yifang-taiwan-fruit-tea-new-york-9?adjust_creative=pDRNOeZqz2kRCxLFBJobsA&utm_campaign=yelp_api_v3&utm_medium=api_v3_business_search&utm_source=pDRNOeZqz2kRCxLFBJobsA", "review_count": 86, "categories": [{"alias": "bubbletea", "title": "Bubble Tea"}], "rating": 3.5, "coordinates": {"latitude": 40.71545, "longitude": -73.99822}, "transactions": ["delivery", "pickup"], "price": "$", "location": {"address1": "67 Bayard St", "address2": "", "address3": null, "city": "New York", "zip_code": "10013", "country": "US", "state": "NY", "display_address": ["67 Bayard St", "New York, NY 10013"]}, "phone": "+16466843411", "display_phone": "(646) 684-3411", "distance": 1160.7090602227402}, {"id": "i_HS4jMRooNZ-myrWl_uFA", "alias": "coco-fresh-tea-and-juice-new-york-6", "name": "Coco Fresh Tea & Juice", "image_url": "https://s3-media1.fl.yelpcdn.com/bphoto/kXRT76qTlqydw4pM-p_F1A/o.jpg", "is_closed": false, "url": "https://www.yelp.com/biz/coco-fresh-tea-and-juice-new-york-6?adjust_creative=pDRNOeZqz2kRCxLFBJobsA&utm_campaign=yelp_api_v3&utm_medium=api_v3_business_search&utm_source=pDRNOeZqz2kRCxLFBJobsA", "review_count": 69, "categories": [{"alias": "bubbletea", "title": "Bubble Tea"}, {"alias": "juicebars", "title": "Juice Bars & Smoothies"}], "rating": 4.0, "coordinates": {"latitude": 40.71414, "longitude": -73.99379}, "transactions": ["delivery", "pickup"], "price": "$", "location": {"address1": "79 Division St", "address2": "", "address3": "", "city": "New York", "zip_code": "10002", "country": "US", "state": "NY", "display_address": ["79 Division St", "New York, NY 10002"]}, "phone": "+12129660933", "display_phone": "(212) 966-0933", "distance": 967.0938466648173}, {"id": "SUnZMrSi-3SKw_hSEMjNQw", "alias": "u-tea-new-york", "name": "U Tea", "image_url": "https://s3-media2.fl.yelpcdn.com/bphoto/Bbf8f5sN-MqfrZmrmNLgBA/o.jpg", "is_closed": false, "url": "https://www.yelp.com/biz/u-tea-new-york?adjust_creative=pDRNOeZqz2kRCxLFBJobsA&utm_campaign=yelp_api_v3&utm_medium=api_v3_business_search&utm_source=pDRNOeZqz2kRCxLFBJobsA", "review_count": 24, "categories": [{"alias": "juicebars", "title": "Juice Bars & Smoothies"}, {"alias": "coffee", "title": "Coffee & Tea"}, {"alias": "bubbletea", "title": "Bubble Tea"}], "rating": 4.5, "coordinates": {"latitude": 40.710478, "longitude": -74.0077673}, "transactions": ["delivery", "pickup"], "location": {"address1": "139 Fulton St", "address2": "", "address3": "", "city": "New York", "zip_code": "10038", "country": "US", "state": "NY", "display_address": ["139 Fulton St", "New York, NY 10038"]}, "phone": "+19172612959", "display_phone": "(917) 261-2959", "distance": 1266.1429960697506}, {"id": "ZLxXNFrH41z1rlteg9ORlw", "alias": "m\u00f6ge-tee-long-island-city", "name": "M\u00f6ge Tee", "image_url": "https://s3-media3.fl.yelpcdn.com/bphoto/HF4OtkGqF4GPkIk5_dmwsg/o.jpg", "is_closed": false, "url": "https://www.yelp.com/biz/m%C3%B6ge-tee-long-island-city?adjust_creative=pDRNOeZqz2kRCxLFBJobsA&utm_campaign=yelp_api_v3&utm_medium=api_v3_business_search&utm_source=pDRNOeZqz2kRCxLFBJobsA", "review_count": 82, "categories": [{"alias": "bubbletea", "title": "Bubble Tea"}, {"alias": "coffee", "title": "Coffee & Tea"}], "rating": 4.0, "coordinates": {"latitude": 40.7497805, "longitude": -73.9415148}, "transactions": ["delivery", "pickup"], "price": "$$", "location": {"address1": "42-32 Crescent St", "address2": null, "address3": "", "city": "Long Island City", "zip_code": "11101", "country": "US", "state": "NY", "display_address": ["42-32 Crescent St", "Long Island City, NY 11101"]}, "phone": "+15184180137", "display_phone": "(518) 418-0137", "distance": 6641.882018486376}, {"id": "dH7jsvPhb6xhQkIu8Pv5jw", "alias": "banhmigos-brooklyn", "name": "Banhmigos", "image_url": "https://s3-media4.fl.yelpcdn.com/bphoto/hJOkWVJe9CogK_ax7ZfCFw/o.jpg", "is_closed": false, "url": "https://www.yelp.com/biz/banhmigos-brooklyn?adjust_creative=pDRNOeZqz2kRCxLFBJobsA&utm_campaign=yelp_api_v3&utm_medium=api_v3_business_search&utm_source=pDRNOeZqz2kRCxLFBJobsA", "review_count": 270, "categories": [{"alias": "bubbletea", "title": "Bubble Tea"}, {"alias": "vietnamese", "title": "Vietnamese"}, {"alias": "sandwiches", "title": "Sandwiches"}], "rating": 4.0, "coordinates": {"latitude": 40.6756340357915, "longitude": -73.9743590354919}, "transactions": ["delivery", "pickup"], "price": "$", "location": {"address1": "178 Lincoln Pl", "address2": "", "address3": "", "city": "Brooklyn", "zip_code": "11217", "country": "US", "state": "NY", "display_address": ["178 Lincoln Pl", "Brooklyn, NY 11217"]}, "phone": "+17183993812", "display_phone": "(718) 399-3812", "distance": 3716.546555510267}, {"id": "yr5X9nqEFfCdJ7NQ7vazNw", "alias": "boba-dumbo-brooklyn", "name": "Boba Dumbo", "image_url": "https://s3-media2.fl.yelpcdn.com/bphoto/r-0krMupT_9R1NZ1AEgpng/o.jpg", "is_closed": false, "url": "https://www.yelp.com/biz/boba-dumbo-brooklyn?adjust_creative=pDRNOeZqz2kRCxLFBJobsA&utm_campaign=yelp_api_v3&utm_medium=api_v3_business_search&utm_source=pDRNOeZqz2kRCxLFBJobsA", "review_count": 8, "categories": [{"alias": "bubbletea", "title": "Bubble Tea"}, {"alias": "icecream", "title": "Ice Cream & Frozen Yogurt"}, {"alias": "coffee", "title": "Coffee & Tea"}], "rating": 4.0, "coordinates": {"latitude": 40.703444, "longitude": -73.986868}, "transactions": ["delivery", "pickup"], "location": {"address1": "52 Jay St", "address2": "", "address3": null, "city": "Brooklyn", "zip_code": "11201", "country": "US", "state": "NY", "display_address": ["52 Jay St", "Brooklyn, NY 11201"]}, "phone": "+13474597652", "display_phone": "(347) 459-7652", "distance": 665.9954320197817}, {"id": "5szV881UpTVanupbVHdgGA", "alias": "jupioca-brooklyn", "name": "Jupioca", "image_url": "https://s3-media3.fl.yelpcdn.com/bphoto/iJIjVpXSOF0fXnas01WYlg/o.jpg", "is_closed": false, "url": "https://www.yelp.com/biz/jupioca-brooklyn?adjust_creative=pDRNOeZqz2kRCxLFBJobsA&utm_campaign=yelp_api_v3&utm_medium=api_v3_business_search&utm_source=pDRNOeZqz2kRCxLFBJobsA", "review_count": 24, "categories": [{"alias": "juicebars", "title": "Juice Bars & Smoothies"}, {"alias": "bubbletea", "title": "Bubble Tea"}, {"alias": "icecream", "title": "Ice Cream & Frozen Yogurt"}], "rating": 4.0, "coordinates": {"latitude": 40.6998901367188, "longitude": -73.9121780395508}, "transactions": [], "price": "$", "location": {"address1": "278 Wyckoff Ave", "address2": "", "address3": null, "city": "Brooklyn", "zip_code": "11237", "country": "US", "state": "NY", "display_address": ["278 Wyckoff Ave", "Brooklyn, NY 11237"]}, "phone": "+13474619150", "display_phone": "(347) 461-9150", "distance": 6951.839077501811}, {"id": "7Oi_WOgnCuGQEjyRuoMkDQ", "alias": "bubbly-tea-new-york", "name": "Bubbly Tea", "image_url": "https://s3-media3.fl.yelpcdn.com/bphoto/XlHYsJPViwiEG54cFfENGg/o.jpg", "is_closed": false, "url": "https://www.yelp.com/biz/bubbly-tea-new-york?adjust_creative=pDRNOeZqz2kRCxLFBJobsA&utm_campaign=yelp_api_v3&utm_medium=api_v3_business_search&utm_source=pDRNOeZqz2kRCxLFBJobsA", "review_count": 288, "categories": [{"alias": "bubbletea", "title": "Bubble Tea"}], "rating": 4.0, "coordinates": {"latitude": 40.715181, "longitude": -73.997787}, "transactions": [], "price": "$", "location": {"address1": "55 Bayard St", "address2": null, "address3": "", "city": "New York", "zip_code": "10013", "country": "US", "state": "NY", "display_address": ["55 Bayard St", "New York, NY 10013"]}, "phone": "", "display_phone": "", "distance": 1121.1166768573062}, {"id": "7Dp291PAk4ufpk6iQJpwsw", "alias": "mi-tea-new-york-4", "name": "Mi Tea", "image_url": "https://s3-media3.fl.yelpcdn.com/bphoto/6Z18W3p8m1X8Pu2cE62KmA/o.jpg", "is_closed": false, "url": "https://www.yelp.com/biz/mi-tea-new-york-4?adjust_creative=pDRNOeZqz2kRCxLFBJobsA&utm_campaign=yelp_api_v3&utm_medium=api_v3_business_search&utm_source=pDRNOeZqz2kRCxLFBJobsA", "review_count": 61, "categories": [{"alias": "bubbletea", "title": "Bubble Tea"}], "rating": 4.5, "coordinates": {"latitude": 40.72965, "longitude": -74.00092}, "transactions": ["delivery", "pickup"], "price": "$", "location": {"address1": "101 MacDougal St", "address2": "", "address3": null, "city": "New York", "zip_code": "10012", "country": "US", "state": "NY", "display_address": ["101 MacDougal St", "New York, NY 10012"]}, "phone": "+12123803998", "display_phone": "(212) 380-3998", "distance": 2748.819678550874}], "total": 1400, "region": {"center": {"longitude": -73.99429321289062, "latitude": 40.70544486444615}}}