{"businesses": [{"id": "AZWPfcWcF8utdCfyTE48jA", "alias": "drip-tea-seattle", "name": "DRIP TEA", "image_url": "https://s3-media3.fl.yelpcdn.com/bphoto/cL0QVWXvCtf45dX52vuVGQ/o.jpg", "is_closed": false, "url": "https://www.yelp.com/biz/drip-tea-seattle?adjust_creative=pDRNOeZqz2kRCxLFBJobsA&utm_campaign=yelp_api_v3&utm_medium=api_v3_business_search&utm_source=pDRNOeZqz2kRCxLFBJobsA", "review_count": 91, "categories": [{"alias": "bubbletea", "title": "Bubble Tea"}], "rating": 4.0, "coordinates": {"latitude": 47.61335, "longitude": -122.3192}, "transactions": [], "price": "$", "location": {"address1": "1416 10th Ave", "address2": "", "address3": null, "city": "Seattle", "zip_code": "98122", "country": "US", "state": "WA", "display_address": ["1416 10th Ave", "Seattle, WA 98122"]}, "phone": "+12064574374", "display_phone": "(206) 457-4374", "distance": 1814.7644215799264}, {"id": "nDvwrhWdB7kjIwn2Z83lSQ", "alias": "seattle-best-tea-seattle", "name": "Seattle Best Tea", "image_url": "https://s3-media2.fl.yelpcdn.com/bphoto/X-chxKUcxPLQTMskJ8zVLA/o.jpg", "is_closed": false, "url": "https://www.yelp.com/biz/seattle-best-tea-seattle?adjust_creative=pDRNOeZqz2kRCxLFBJobsA&utm_campaign=yelp_api_v3&utm_medium=api_v3_business_search&utm_source=pDRNOeZqz2kRCxLFBJobsA", "review_count": 377, "categories": [{"alias": "coffee", "title": "Coffee & Tea"}, {"alias": "bubbletea", "title": "Bubble Tea"}, {"alias": "juicebars", "title": "Juice Bars & Smoothies"}], "rating": 4.5, "coordinates": {"latitude": 47.59846, "longitude": -122.32731}, "transactions": ["pickup", "delivery"], "price": "$", "location": {"address1": "506 S King St", "address2": "", "address3": "", "city": "Seattle", "zip_code": "98104", "country": "US", "state": "WA", "display_address": ["506 S King St", "Seattle, WA 98104"]}, "phone": "+12067499855", "display_phone": "(206) 749-9855", "distance": 3051.798655860526}, {"id": "xI0ayTQVBIAkZpJiWk-SNQ", "alias": "20-oz-tea-seattle", "name": "20 OZ TEA", "image_url": "https://s3-media2.fl.yelpcdn.com/bphoto/G4pnVfTmvYcoCkzI0bWwew/o.jpg", "is_closed": false, "url": "https://www.yelp.com/biz/20-oz-tea-seattle?adjust_creative=pDRNOeZqz2kRCxLFBJobsA&utm_campaign=yelp_api_v3&utm_medium=api_v3_business_search&utm_source=pDRNOeZqz2kRCxLFBJobsA", "review_count": 261, "categories": [{"alias": "bubbletea", "title": "Bubble Tea"}], "rating": 4.5, "coordinates": {"latitude": 47.63568, "longitude": -122.32591}, "transactions": ["delivery"], "price": "$", "location": {"address1": "1823 Eastlake Ave E", "address2": "Ste 160", "address3": null, "city": "Seattle", "zip_code": "98102", "country": "US", "state": "WA", "display_address": ["1823 Eastlake Ave E", "Ste 160", "Seattle, WA 98102"]}, "phone": "+12067126027", "display_phone": "(206) 712-6027", "distance": 1343.3247175837273}, {"id": "BFTaYXgJDxQY38MQZAWZFQ", "alias": "young-tea-seattle", "name": "Young Tea", "image_url": "https://s3-media4.fl.yelpcdn.com/bphoto/pzbhSarqQZX1r-7qLlHUug/o.jpg", "is_closed": false, "url": "https://www.yelp.com/biz/young-tea-seattle?adjust_creative=pDRNOeZqz2kRCxLFBJobsA&utm_campaign=yelp_api_v3&utm_medium=api_v3_business_search&utm_source=pDRNOeZqz2kRCxLFBJobsA", "review_count": 483, "categories": [{"alias": "bubbletea", "title": "Bubble Tea"}, {"alias": "coffee", "title": "Coffee & Tea"}, {"alias": "desserts", "title": "Desserts"}], "rating": 4.0, "coordinates": {"latitude": 47.59733, "longitude": -122.32597}, "transactions": ["pickup", "delivery"], "price": "$", "location": {"address1": "609 S Weller St", "address2": "Unit B", "address3": "", "city": "Seattle", "zip_code": "98104", "country": "US", "state": "WA", "display_address": ["609 S Weller St", "Unit B", "Seattle, WA 98104"]}, "phone": "+12066826688", "display_phone": "(206) 682-6688", "distance": 3202.1016999196218}, {"id": "bffe-H3hllZ5ZPfROfureg", "alias": "yifang-taiwan-fruit-tea-seattle-2", "name": "YiFang Taiwan Fruit Tea", "image_url": "https://s3-media1.fl.yelpcdn.com/bphoto/ki68oFITwc7a5HR9VBVWTA/o.jpg", "is_closed": false, "url": "https://www.yelp.com/biz/yifang-taiwan-fruit-tea-seattle-2?adjust_creative=pDRNOeZqz2kRCxLFBJobsA&utm_campaign=yelp_api_v3&utm_medium=api_v3_business_search&utm_source=pDRNOeZqz2kRCxLFBJobsA", "review_count": 96, "categories": [{"alias": "bubbletea", "title": "Bubble Tea"}], "rating": 4.0, "coordinates": {"latitude": 47.66504, "longitude": -122.3128}, "transactions": [], "price": "$$", "location": {"address1": "5000 University Way NE", "address2": "Ste C", "address3": "", "city": "Seattle", "zip_code": "98105", "country": "US", "state": "WA", "display_address": ["5000 University Way NE", "Ste C", "Seattle, WA 98105"]}, "phone": "+12064202369", "display_phone": "(206) 420-2369", "distance": 4727.177984446733}, {"id": "wEsKFcjc1WlY_TFnQkKfvA", "alias": "the-moo-bar-seattle-3", "name": "The Moo Bar", "image_url": "https://s3-media4.fl.yelpcdn.com/bphoto/u4_OMRARMb7PSYNzmNR1iQ/o.jpg", "is_closed": false, "url": "https://www.yelp.com/biz/the-moo-bar-seattle-3?adjust_creative=pDRNOeZqz2kRCxLFBJobsA&utm_campaign=yelp_api_v3&utm_medium=api_v3_business_search&utm_source=pDRNOeZqz2kRCxLFBJobsA", "review_count": 418, "categories": [{"alias": "desserts", "title": "Desserts"}, {"alias": "bubbletea", "title": "Bubble Tea"}, {"alias": "coffee", "title": "Coffee & Tea"}], "rating": 3.0, "coordinates": {"latitude": 47.61736, "longitude": -122.33804}, "transactions": ["delivery"], "price": "$", "location": {"address1": "2124 Westlake Ave", "address2": "", "address3": null, "city": "Seattle", "zip_code": "98121", "country": "US", "state": "WA", "display_address": ["2124 Westlake Ave", "Seattle, WA 98121"]}, "phone": "+12064673191", "display_phone": "(206) 467-3191", "distance": 906.8386909768128}, {"id": "9NFPJ72DIXWbSfeGGOBsTQ", "alias": "diy-tea-lab-newcastle", "name": "DIY Tea Lab", "image_url": "https://s3-media4.fl.yelpcdn.com/bphoto/WLiJByazgWum2Sg6mXCp-A/o.jpg", "is_closed": false, "url": "https://www.yelp.com/biz/diy-tea-lab-newcastle?adjust_creative=pDRNOeZqz2kRCxLFBJobsA&utm_campaign=yelp_api_v3&utm_medium=api_v3_business_search&utm_source=pDRNOeZqz2kRCxLFBJobsA", "review_count": 55, "categories": [{"alias": "bubbletea", "title": "Bubble Tea"}, {"alias": "juicebars", "title": "Juice Bars & Smoothies"}], "rating": 4.5, "coordinates": {"latitude": 47.538228449393, "longitude": -122.166748344898}, "transactions": ["pickup", "delivery"], "price": "$", "location": {"address1": "6973 Coal Creek Pkwy SE", "address2": "", "address3": null, "city": "Newcastle", "zip_code": "98059", "country": "US", "state": "WA", "display_address": ["6973 Coal Creek Pkwy SE", "Newcastle, WA 98059"]}, "phone": "+14256796645", "display_phone": "(425) 679-6645", "distance": 15944.27965129467}, {"id": "gXRtRRpbeSdkoJFW-gwk1A", "alias": "bambu-seattle-2", "name": "BAMBU", "image_url": "https://s3-media2.fl.yelpcdn.com/bphoto/0K3gkVxipVCQYXchRRkyPg/o.jpg", "is_closed": false, "url": "https://www.yelp.com/biz/bambu-seattle-2?adjust_creative=pDRNOeZqz2kRCxLFBJobsA&utm_campaign=yelp_api_v3&utm_medium=api_v3_business_search&utm_source=pDRNOeZqz2kRCxLFBJobsA", "review_count": 426, "categories": [{"alias": "shavedice", "title": "Shaved Ice"}, {"alias": "bubbletea", "title": "Bubble Tea"}, {"alias": "coffee", "title": "Coffee & Tea"}], "rating": 4.0, "coordinates": {"latitude": 47.59786, "longitude": -122.3235}, "transactions": ["pickup", "delivery"], "price": "$", "location": {"address1": "516 7th Ave S", "address2": "Unit A", "address3": "", "city": "Seattle", "zip_code": "98104", "country": "US", "state": "WA", "display_address": ["516 7th Ave S", "Unit A", "Seattle, WA 98104"]}, "phone": "+12065380399", "display_phone": "(206) 538-0399", "distance": 3190.653683248933}, {"id": "muiocC26CyttXAalS23cuQ", "alias": "wow-bubble-tea-seattle", "name": "WOW Bubble Tea", "image_url": "https://s3-media2.fl.yelpcdn.com/bphoto/sarWmrz9dWQhr5y4CHrdEA/o.jpg", "is_closed": false, "url": "https://www.yelp.com/biz/wow-bubble-tea-seattle?adjust_creative=pDRNOeZqz2kRCxLFBJobsA&utm_campaign=yelp_api_v3&utm_medium=api_v3_business_search&utm_source=pDRNOeZqz2kRCxLFBJobsA", "review_count": 311, "categories": [{"alias": "coffee", "title": "Coffee & Tea"}, {"alias": "icecream", "title": "Ice Cream & Frozen Yogurt"}, {"alias": "bubbletea", "title": "Bubble Tea"}], "rating": 4.0, "coordinates": {"latitude": 47.6628435, "longitude": -122.3132573}, "transactions": ["delivery"], "price": "$", "location": {"address1": "4553 University Way NE", "address2": null, "address3": "", "city": "Seattle", "zip_code": "98105", "country": "US", "state": "WA", "display_address": ["4553 University Way NE", "Seattle, WA 98105"]}, "phone": "+12066331229", "display_phone": "(206) 633-1229", "distance": 4482.911140696804}, {"id": "1ZnlSbwJpc9qwHyK8C0BfA", "alias": "dreamy-drinks-seattle-4", "name": "Dreamy Drinks", "image_url": "https://s3-media4.fl.yelpcdn.com/bphoto/ny2_1XoSiavKMAHtgBrIiQ/o.jpg", "is_closed": false, "url": "https://www.yelp.com/biz/dreamy-drinks-seattle-4?adjust_creative=pDRNOeZqz2kRCxLFBJobsA&utm_campaign=yelp_api_v3&utm_medium=api_v3_business_search&utm_source=pDRNOeZqz2kRCxLFBJobsA", "review_count": 79, "categories": [{"alias": "bubbletea", "title": "Bubble Tea"}, {"alias": "coffee", "title": "Coffee & Tea"}, {"alias": "foodtrucks", "title": "Food Trucks"}], "rating": 4.0, "coordinates": {"latitude": 47.6112518310547, "longitude": -122.334930419922}, "transactions": [], "location": {"address1": null, "address2": null, "address3": "", "city": "Seattle", "zip_code": "98101", "country": "US", "state": "WA", "display_address": ["Seattle, WA 98101"]}, "phone": "+14253820796", "display_phone": "(425) 382-0796", "distance": 1883.3883969473607}, {"id": "DD2UG9WnSJMvg2QHsQJeZQ", "alias": "boba-up-seattle-3", "name": "Boba Up", "image_url": "https://s3-media1.fl.yelpcdn.com/bphoto/EDIX52PNZbpa8PIBxjzZ2g/o.jpg", "is_closed": false, "url": "https://www.yelp.com/biz/boba-up-seattle-3?adjust_creative=pDRNOeZqz2kRCxLFBJobsA&utm_campaign=yelp_api_v3&utm_medium=api_v3_business_search&utm_source=pDRNOeZqz2kRCxLFBJobsA", "review_count": 219, "categories": [{"alias": "bubbletea", "title": "Bubble Tea"}], "rating": 4.0, "coordinates": {"latitude": 47.65807, "longitude": -122.31354}, "transactions": ["delivery"], "price": "$", "location": {"address1": "4141 University Way NE", "address2": "Ste 103", "address3": null, "city": "Seattle", "zip_code": "98105", "country": "US", "state": "WA", "display_address": ["4141 University Way NE", "Ste 103", "Seattle, WA 98105"]}, "phone": "+12065478800", "display_phone": "(206) 547-8800", "distance": 3986.35173156784}, {"id": "mp3KT0jgce1_4GoFBoGB_A", "alias": "19-gold-seattle", "name": "19 GOLD", "image_url": "https://s3-media2.fl.yelpcdn.com/bphoto/IS4doccFeNA6y17cTeC4Bw/o.jpg", "is_closed": false, "url": "https://www.yelp.com/biz/19-gold-seattle?adjust_creative=pDRNOeZqz2kRCxLFBJobsA&utm_campaign=yelp_api_v3&utm_medium=api_v3_business_search&utm_source=pDRNOeZqz2kRCxLFBJobsA", "review_count": 365, "categories": [{"alias": "taiwanese", "title": "Taiwanese"}, {"alias": "bubbletea", "title": "Bubble Tea"}], "rating": 4.5, "coordinates": {"latitude": 47.651839, "longitude": -122.350314}, "transactions": ["pickup", "delivery"], "price": "$$", "location": {"address1": "3601 Fremont Ave N", "address2": "Ste 101", "address3": "", "city": "Seattle", "zip_code": "98103", "country": "US", "state": "WA", "display_address": ["3601 Fremont Ave N", "Ste 101", "Seattle, WA 98103"]}, "phone": "+12065880952", "display_phone": "(206) 588-0952", "distance": 3135.618465503346}, {"id": "oDAzcBLIG3u-BbjqdEUr_A", "alias": "bobabucha-seattle-2", "name": "BobaBucha", "image_url": "https://s3-media2.fl.yelpcdn.com/bphoto/teBsaVdRajt5iDqU3A5kTQ/o.jpg", "is_closed": false, "url": "https://www.yelp.com/biz/bobabucha-seattle-2?adjust_creative=pDRNOeZqz2kRCxLFBJobsA&utm_campaign=yelp_api_v3&utm_medium=api_v3_business_search&utm_source=pDRNOeZqz2kRCxLFBJobsA", "review_count": 49, "categories": [{"alias": "bubbletea", "title": "Bubble Tea"}, {"alias": "kombucha", "title": "Kombucha"}, {"alias": "desserts", "title": "Desserts"}], "rating": 4.5, "coordinates": {"latitude": 47.61547, "longitude": -122.31297}, "transactions": ["delivery"], "price": "$", "location": {"address1": "1424 E Pine St", "address2": null, "address3": "", "city": "Seattle", "zip_code": "98122", "country": "US", "state": "WA", "display_address": ["1424 E Pine St", "Seattle, WA 98122"]}, "phone": "+12066952243", "display_phone": "(206) 695-2243", "distance": 2021.5268803254978}, {"id": "M4BjcVhOEjVgeF8EeSjZPQ", "alias": "oasis-tea-zone-seattle", "name": "Oasis Tea Zone", "image_url": "https://s3-media3.fl.yelpcdn.com/bphoto/KBoQsS6orUEmjtKh3Vin4A/o.jpg", "is_closed": false, "url": "https://www.yelp.com/biz/oasis-tea-zone-seattle?adjust_creative=pDRNOeZqz2kRCxLFBJobsA&utm_campaign=yelp_api_v3&utm_medium=api_v3_business_search&utm_source=pDRNOeZqz2kRCxLFBJobsA", "review_count": 812, "categories": [{"alias": "coffee", "title": "Coffee & Tea"}, {"alias": "juicebars", "title": "Juice Bars & Smoothies"}, {"alias": "bubbletea", "title": "Bubble Tea"}], "rating": 3.5, "coordinates": {"latitude": 47.5976518611681, "longitude": -122.326559026402}, "transactions": ["delivery"], "price": "$", "location": {"address1": "519 6th Ave S", "address2": "", "address3": "", "city": "Seattle", "zip_code": "98104", "country": "US", "state": "WA", "display_address": ["519 6th Ave S", "Seattle, WA 98104"]}, "phone": "+12064478098", "display_phone": "(206) 447-8098", "distance": 3159.638768819001}, {"id": "Jtmxge2f2qVi_wvi5ODGxQ", "alias": "ding-tea-seattle-seattle-2", "name": "DING TEA SEATTLE", "image_url": "https://s3-media3.fl.yelpcdn.com/bphoto/swK81jt-c_MF_VT3pEZHZQ/o.jpg", "is_closed": false, "url": "https://www.yelp.com/biz/ding-tea-seattle-seattle-2?adjust_creative=pDRNOeZqz2kRCxLFBJobsA&utm_campaign=yelp_api_v3&utm_medium=api_v3_business_search&utm_source=pDRNOeZqz2kRCxLFBJobsA", "review_count": 149, "categories": [{"alias": "bubbletea", "title": "Bubble Tea"}, {"alias": "coffee", "title": "Coffee & Tea"}], "rating": 4.0, "coordinates": {"latitude": 47.66386, "longitude": -122.31339}, "transactions": ["pickup", "delivery"], "price": "$", "location": {"address1": "4725 University Way NE", "address2": "", "address3": null, "city": "Seattle", "zip_code": "98105", "country": "US", "state": "WA", "display_address": ["4725 University Way NE", "Seattle, WA 98105"]}, "phone": "+12064567192", "display_phone": "(206) 456-7192", "distance": 4583.058561624345}, {"id": "BsnctWRn5l0-nCZfPsB_Ig", "alias": "coco-fresh-tea-and-juice-bellevue", "name": "CoCo Fresh Tea & Juice", "image_url": "https://s3-media4.fl.yelpcdn.com/bphoto/r2V_Rb4H2ykp9pl-AlEIzg/o.jpg", "is_closed": false, "url": "https://www.yelp.com/biz/coco-fresh-tea-and-juice-bellevue?adjust_creative=pDRNOeZqz2kRCxLFBJobsA&utm_campaign=yelp_api_v3&utm_medium=api_v3_business_search&utm_source=pDRNOeZqz2kRCxLFBJobsA", "review_count": 226, "categories": [{"alias": "bubbletea", "title": "Bubble Tea"}, {"alias": "juicebars", "title": "Juice Bars & Smoothies"}, {"alias": "coffee", "title": "Coffee & Tea"}], "rating": 4.0, "coordinates": {"latitude": 47.6176699, "longitude": -122.19283}, "transactions": ["pickup", "delivery"], "price": "$", "location": {"address1": "11028 NE 8th St", "address2": "", "address3": null, "city": "Bellevue", "zip_code": "98004", "country": "US", "state": "WA", "display_address": ["11028 NE 8th St", "Bellevue, WA 98004"]}, "phone": "+14253626962", "display_phone": "(425) 362-6962", "distance": 10734.103460586795}, {"id": "Yb08Q7BFawBi2g2W2d4Xqg", "alias": "sharetea-seattle-4", "name": "Sharetea", "image_url": "https://s3-media3.fl.yelpcdn.com/bphoto/sNkLQeSYiKO8-4yXt66HLg/o.jpg", "is_closed": false, "url": "https://www.yelp.com/biz/sharetea-seattle-4?adjust_creative=pDRNOeZqz2kRCxLFBJobsA&utm_campaign=yelp_api_v3&utm_medium=api_v3_business_search&utm_source=pDRNOeZqz2kRCxLFBJobsA", "review_count": 83, "categories": [{"alias": "bubbletea", "title": "Bubble Tea"}, {"alias": "coffee", "title": "Coffee & Tea"}, {"alias": "juicebars", "title": "Juice Bars & Smoothies"}], "rating": 4.0, "coordinates": {"latitude": 47.607, "longitude": -122.32039}, "transactions": ["pickup", "delivery"], "price": "$", "location": {"address1": "530 Broadway", "address2": null, "address3": "", "city": "Seattle", "zip_code": "98122", "country": "US", "state": "WA", "display_address": ["530 Broadway", "Seattle, WA 98122"]}, "phone": "+14258298644", "display_phone": "(425) 829-8644", "distance": 2333.197096345198}, {"id": "rFC0LUPyhgyP7UC9ehkrHw", "alias": "jazen-tea-seattle-3", "name": "Jazen Tea", "image_url": "https://s3-media2.fl.yelpcdn.com/bphoto/NuAEYqzM7yHYSVD9s0uRcw/o.jpg", "is_closed": false, "url": "https://www.yelp.com/biz/jazen-tea-seattle-3?adjust_creative=pDRNOeZqz2kRCxLFBJobsA&utm_campaign=yelp_api_v3&utm_medium=api_v3_business_search&utm_source=pDRNOeZqz2kRCxLFBJobsA", "review_count": 78, "categories": [{"alias": "coffee", "title": "Coffee & Tea"}, {"alias": "bubbletea", "title": "Bubble Tea"}, {"alias": "juicebars", "title": "Juice Bars & Smoothies"}], "rating": 4.0, "coordinates": {"latitude": 47.5977133, "longitude": -122.325291}, "transactions": ["pickup", "delivery"], "price": "$", "location": {"address1": "618 S Weller St", "address2": "", "address3": "", "city": "Seattle", "zip_code": "98104", "country": "US", "state": "WA", "display_address": ["618 S Weller St", "Seattle, WA 98104"]}, "phone": "+12066247189", "display_phone": "(206) 624-7189", "distance": 3174.5512730015257}, {"id": "_g_uT28EKysvhrZGgS-qbg", "alias": "happy-lemon-bellevue", "name": "Happy Lemon", "image_url": "https://s3-media3.fl.yelpcdn.com/bphoto/ZsIlm1OdNe1MnJRL2sqm4g/o.jpg", "is_closed": false, "url": "https://www.yelp.com/biz/happy-lemon-bellevue?adjust_creative=pDRNOeZqz2kRCxLFBJobsA&utm_campaign=yelp_api_v3&utm_medium=api_v3_business_search&utm_source=pDRNOeZqz2kRCxLFBJobsA", "review_count": 361, "categories": [{"alias": "bubbletea", "title": "Bubble Tea"}, {"alias": "juicebars", "title": "Juice Bars & Smoothies"}, {"alias": "waffles", "title": "Waffles"}], "rating": 4.0, "coordinates": {"latitude": 47.615121, "longitude": -122.203117}, "transactions": ["delivery"], "price": "$", "location": {"address1": "1031 Bellevue Sq", "address2": "", "address3": null, "city": "Bellevue", "zip_code": "98004", "country": "US", "state": "WA", "display_address": ["1031 Bellevue Sq", "Bellevue, WA 98004"]}, "phone": "+14254535352", "display_phone": "(425) 453-5352", "distance": 9988.708186313157}, {"id": "lhP8uwAgPZ5Fs6wkXuUdNw", "alias": "hi-tea-cafe-seattle", "name": "Hi Tea Cafe", "image_url": "https://s3-media1.fl.yelpcdn.com/bphoto/gjlrGhEM8zHROfXyvIxwrg/o.jpg", "is_closed": false, "url": "https://www.yelp.com/biz/hi-tea-cafe-seattle?adjust_creative=pDRNOeZqz2kRCxLFBJobsA&utm_campaign=yelp_api_v3&utm_medium=api_v3_business_search&utm_source=pDRNOeZqz2kRCxLFBJobsA", "review_count": 92, "categories": [{"alias": "bubbletea", "title": "Bubble Tea"}], "rating": 4.0, "coordinates": {"latitude": 47.6200594, "longitude": -122.32064}, "transactions": [], "price": "$", "location": {"address1": "202 Broadway E", "address2": "", "address3": null, "city": "Seattle", "zip_code": "98102", "country": "US", "state": "WA", "display_address": ["202 Broadway E", "Seattle, WA 98102"]}, "phone": "+12068298039", "display_phone": "(206) 829-8039", "distance": 1263.8115546563192}, {"id": "BXjaJd5j3BJl8K4EVdSvEA", "alias": "atulea-seattle", "name": "Atulea", "image_url": "https://s3-media3.fl.yelpcdn.com/bphoto/xd1sq9uyss4UBczza5zbug/o.jpg", "is_closed": false, "url": "https://www.yelp.com/biz/atulea-seattle?adjust_creative=pDRNOeZqz2kRCxLFBJobsA&utm_campaign=yelp_api_v3&utm_medium=api_v3_business_search&utm_source=pDRNOeZqz2kRCxLFBJobsA", "review_count": 131, "categories": [{"alias": "bubbletea", "title": "Bubble Tea"}, {"alias": "coffee", "title": "Coffee & Tea"}, {"alias": "cafes", "title": "Cafes"}], "rating": 4.5, "coordinates": {"latitude": 47.61691, "longitude": -122.31718}, "transactions": ["delivery"], "price": "$", "location": {"address1": "1715 12th Ave", "address2": "Suite.100", "address3": null, "city": "Seattle", "zip_code": "98122", "country": "US", "state": "WA", "display_address": ["1715 12th Ave", "Suite.100", "Seattle, WA 98122"]}, "phone": "+12064135903", "display_phone": "(206) 413-5903", "distance": 1666.6735649725197}, {"id": "WMlfcf1b6sDkjyLBeotfrg", "alias": "rain-cafe-seattle", "name": "Rain Cafe", "image_url": "https://s3-media4.fl.yelpcdn.com/bphoto/jBoO3HWaN1dzIJYsxTXTHw/o.jpg", "is_closed": false, "url": "https://www.yelp.com/biz/rain-cafe-seattle?adjust_creative=pDRNOeZqz2kRCxLFBJobsA&utm_campaign=yelp_api_v3&utm_medium=api_v3_business_search&utm_source=pDRNOeZqz2kRCxLFBJobsA", "review_count": 359, "categories": [{"alias": "coffee", "title": "Coffee & Tea"}, {"alias": "bubbletea", "title": "Bubble Tea"}, {"alias": "asianfusion", "title": "Asian Fusion"}], "rating": 3.5, "coordinates": {"latitude": 47.7250299, "longitude": -122.3436}, "transactions": ["pickup", "delivery"], "price": "$$", "location": {"address1": "13200 Aurora Ave N", "address2": "Ste C", "address3": "", "city": "Seattle", "zip_code": "98133", "country": "US", "state": "WA", "display_address": ["13200 Aurora Ave N", "Ste C", "Seattle, WA 98133"]}, "phone": "+12065564677", "display_phone": "(206) 556-4677", "distance": 11066.524125468683}, {"id": "EPZeu6ALh4zvSs06cLvmcg", "alias": "vivi-bubble-tea-redmond-3", "name": "ViVi Bubble Tea", "image_url": "https://s3-media3.fl.yelpcdn.com/bphoto/m5ufufclkzSIegUTo4mFHQ/o.jpg", "is_closed": false, "url": "https://www.yelp.com/biz/vivi-bubble-tea-redmond-3?adjust_creative=pDRNOeZqz2kRCxLFBJobsA&utm_campaign=yelp_api_v3&utm_medium=api_v3_business_search&utm_source=pDRNOeZqz2kRCxLFBJobsA", "review_count": 144, "categories": [{"alias": "bubbletea", "title": "Bubble Tea"}], "rating": 4.0, "coordinates": {"latitude": 47.67602, "longitude": -122.12724}, "transactions": ["delivery"], "location": {"address1": "8145 161st Ave NE", "address2": null, "address3": "", "city": "Redmond", "zip_code": "98052", "country": "US", "state": "WA", "display_address": ["8145 161st Ave NE", "Redmond, WA 98052"]}, "phone": "+14259688200", "display_phone": "(425) 968-8200", "distance": 16581.055119528388}, {"id": "EoupzbxGRSEJpPhWx-NttQ", "alias": "bubble-tea-fresh-fruit-juice-seattle", "name": "Bubble Tea Fresh Fruit Juice", "image_url": "https://s3-media3.fl.yelpcdn.com/bphoto/tJa1EXHxHQ5pJ8MvN5RuFA/o.jpg", "is_closed": false, "url": "https://www.yelp.com/biz/bubble-tea-fresh-fruit-juice-seattle?adjust_creative=pDRNOeZqz2kRCxLFBJobsA&utm_campaign=yelp_api_v3&utm_medium=api_v3_business_search&utm_source=pDRNOeZqz2kRCxLFBJobsA", "review_count": 69, "categories": [{"alias": "bubbletea", "title": "Bubble Tea"}, {"alias": "juicebars", "title": "Juice Bars & Smoothies"}], "rating": 4.0, "coordinates": {"latitude": 47.59893, "longitude": -122.31779}, "transactions": ["delivery"], "price": "$", "location": {"address1": "1043 S Jackson St", "address2": "Ste 102", "address3": "", "city": "Seattle", "zip_code": "98104", "country": "US", "state": "WA", "display_address": ["1043 S Jackson St", "Ste 102", "Seattle, WA 98104"]}, "phone": "+12063295979", "display_phone": "(206) 329-5979", "distance": 3232.584416862985}, {"id": "gGE7tV0JjptbAvktq9PMlw", "alias": "happy-lemon-tukwila-2", "name": "Happy Lemon", "image_url": "https://s3-media4.fl.yelpcdn.com/bphoto/m_3ck0mb8gqkiOpJYhpFfQ/o.jpg", "is_closed": false, "url": "https://www.yelp.com/biz/happy-lemon-tukwila-2?adjust_creative=pDRNOeZqz2kRCxLFBJobsA&utm_campaign=yelp_api_v3&utm_medium=api_v3_business_search&utm_source=pDRNOeZqz2kRCxLFBJobsA", "review_count": 95, "categories": [{"alias": "bubbletea", "title": "Bubble Tea"}, {"alias": "juicebars", "title": "Juice Bars & Smoothies"}, {"alias": "waffles", "title": "Waffles"}], "rating": 4.0, "coordinates": {"latitude": 47.45003, "longitude": -122.26331}, "transactions": ["pickup", "delivery"], "price": "$", "location": {"address1": "17105 Southcenter Pkwy", "address2": "", "address3": null, "city": "Tukwila", "zip_code": "98188", "country": "US", "state": "WA", "display_address": ["17105 Southcenter Pkwy", "Tukwila, WA 98188"]}, "phone": "+12532773726", "display_phone": "(253) 277-3726", "distance": 20239.100552434786}, {"id": "OY8SMbc31wXMcHs5UzqsUw", "alias": "citra-seattle", "name": "Citra", "image_url": "https://s3-media3.fl.yelpcdn.com/bphoto/10R7LE1lKMh5jEGtyrfJhA/o.jpg", "is_closed": false, "url": "https://www.yelp.com/biz/citra-seattle?adjust_creative=pDRNOeZqz2kRCxLFBJobsA&utm_campaign=yelp_api_v3&utm_medium=api_v3_business_search&utm_source=pDRNOeZqz2kRCxLFBJobsA", "review_count": 207, "categories": [{"alias": "icecream", "title": "Ice Cream & Frozen Yogurt"}, {"alias": "coffee", "title": "Coffee & Tea"}, {"alias": "bubbletea", "title": "Bubble Tea"}], "rating": 4.5, "coordinates": {"latitude": 47.6638174140586, "longitude": -122.312971447885}, "transactions": ["delivery"], "price": "$", "location": {"address1": "4730 University Way NE", "address2": "Ste 105", "address3": "", "city": "Seattle", "zip_code": "98105", "country": "US", "state": "WA", "display_address": ["4730 University Way NE", "Ste 105", "Seattle, WA 98105"]}, "phone": "+12063279012", "display_phone": "(206) 327-9012", "distance": 4591.441836080162}, {"id": "LQUecX5mXFJqKZWc4hjiKA", "alias": "happy-lemon-bellevue-2", "name": "Happy Lemon", "image_url": "https://s3-media1.fl.yelpcdn.com/bphoto/YwadBRgdR403R0BmHhAHZA/o.jpg", "is_closed": false, "url": "https://www.yelp.com/biz/happy-lemon-bellevue-2?adjust_creative=pDRNOeZqz2kRCxLFBJobsA&utm_campaign=yelp_api_v3&utm_medium=api_v3_business_search&utm_source=pDRNOeZqz2kRCxLFBJobsA", "review_count": 111, "categories": [{"alias": "juicebars", "title": "Juice Bars & Smoothies"}, {"alias": "bubbletea", "title": "Bubble Tea"}, {"alias": "waffles", "title": "Waffles"}], "rating": 4.0, "coordinates": {"latitude": 47.62576, "longitude": -122.15473}, "transactions": ["pickup", "delivery"], "price": "$", "location": {"address1": "1645 140th Ave NE", "address2": "Ste B8", "address3": "", "city": "Bellevue", "zip_code": "98005", "country": "US", "state": "WA", "display_address": ["1645 140th Ave NE", "Ste B8", "Bellevue, WA 98005"]}, "phone": "+14256432460", "display_phone": "(425) 643-2460", "distance": 13550.404791073588}, {"id": "xwwO4EOy0PHgMfZKp5xP2g", "alias": "yan-tea-seattle-3", "name": "Yan Tea", "image_url": "https://s3-media1.fl.yelpcdn.com/bphoto/hEc_xE0oSl90JOzaBgulNw/o.jpg", "is_closed": false, "url": "https://www.yelp.com/biz/yan-tea-seattle-3?adjust_creative=pDRNOeZqz2kRCxLFBJobsA&utm_campaign=yelp_api_v3&utm_medium=api_v3_business_search&utm_source=pDRNOeZqz2kRCxLFBJobsA", "review_count": 37, "categories": [{"alias": "bakeries", "title": "Bakeries"}, {"alias": "coffee", "title": "Coffee & Tea"}, {"alias": "desserts", "title": "Desserts"}], "rating": 4.5, "coordinates": {"latitude": 47.6667975, "longitude": -122.31710616}, "transactions": [], "price": "$", "location": {"address1": "5210 Roosevelt Way NE", "address2": "Ste A", "address3": "", "city": "Seattle", "zip_code": "98105", "country": "US", "state": "WA", "display_address": ["5210 Roosevelt Way NE", "Ste A", "Seattle, WA 98105"]}, "phone": "", "display_phone": "", "distance": 4804.947404824292}, {"id": "N30dNS8mcCLkDZi_m-uJAw", "alias": "truetea-kent", "name": "Truetea", "image_url": "https://s3-media4.fl.yelpcdn.com/bphoto/XtsErUk3h4uxZHFBZfXWwQ/o.jpg", "is_closed": false, "url": "https://www.yelp.com/biz/truetea-kent?adjust_creative=pDRNOeZqz2kRCxLFBJobsA&utm_campaign=yelp_api_v3&utm_medium=api_v3_business_search&utm_source=pDRNOeZqz2kRCxLFBJobsA", "review_count": 27, "categories": [{"alias": "coffee", "title": "Coffee & Tea"}, {"alias": "bubbletea", "title": "Bubble Tea"}, {"alias": "juicebars", "title": "Juice Bars & Smoothies"}], "rating": 5.0, "coordinates": {"latitude": 47.373199, "longitude": -122.204011}, "transactions": [], "location": {"address1": "10216 SE 256th St", "address2": "", "address3": null, "city": "Kent", "zip_code": "98030", "country": "US", "state": "WA", "display_address": ["10216 SE 256th St", "Kent, WA 98030"]}, "phone": "+12532771515", "display_phone": "(253) 277-1515", "distance": 29734.721193176578}, {"id": "QSOJshpTpNWClcUmdvyAYw", "alias": "kung-fu-tea-seattle", "name": "Kung Fu Tea", "image_url": "https://s3-media3.fl.yelpcdn.com/bphoto/NRVSUJaaMcZLUkdJDJKbqA/o.jpg", "is_closed": false, "url": "https://www.yelp.com/biz/kung-fu-tea-seattle?adjust_creative=pDRNOeZqz2kRCxLFBJobsA&utm_campaign=yelp_api_v3&utm_medium=api_v3_business_search&utm_source=pDRNOeZqz2kRCxLFBJobsA", "review_count": 176, "categories": [{"alias": "coffee", "title": "Coffee & Tea"}, {"alias": "bubbletea", "title": "Bubble Tea"}, {"alias": "juicebars", "title": "Juice Bars & Smoothies"}], "rating": 4.0, "coordinates": {"latitude": 47.6640289613428, "longitude": -122.312810897055}, "transactions": ["pickup", "delivery"], "price": "$", "location": {"address1": "4730 University Way NE", "address2": "Ste 109-110", "address3": "", "city": "Seattle", "zip_code": "98105", "country": "US", "state": "WA", "display_address": ["4730 University Way NE", "Ste 109-110", "Seattle, WA 98105"]}, "phone": "+12062943900", "display_phone": "(206) 294-3900", "distance": 4617.739008386407}, {"id": "aehEcMofRIwUiiLXPAOYXw", "alias": "ambrosia-cafe-seattle", "name": "Ambrosia Cafe", "image_url": "https://s3-media2.fl.yelpcdn.com/bphoto/7-9V1iW2YgTfwu68VPyjCg/o.jpg", "is_closed": false, "url": "https://www.yelp.com/biz/ambrosia-cafe-seattle?adjust_creative=pDRNOeZqz2kRCxLFBJobsA&utm_campaign=yelp_api_v3&utm_medium=api_v3_business_search&utm_source=pDRNOeZqz2kRCxLFBJobsA", "review_count": 353, "categories": [{"alias": "coffee", "title": "Coffee & Tea"}, {"alias": "juicebars", "title": "Juice Bars & Smoothies"}, {"alias": "bubbletea", "title": "Bubble Tea"}], "rating": 3.5, "coordinates": {"latitude": 47.5982, "longitude": -122.32542}, "transactions": ["pickup", "delivery"], "price": "$", "location": {"address1": "619 S King St", "address2": null, "address3": "", "city": "Seattle", "zip_code": "98104", "country": "US", "state": "WA", "display_address": ["619 S King St", "Seattle, WA 98104"]}, "phone": "+12066239028", "display_phone": "(206) 623-9028", "distance": 3115.6000606624484}, {"id": "VerCJVewgGYUx6xwdaDjDw", "alias": "yuan-bao-seattle", "name": "Yuan Bao", "image_url": "https://s3-media2.fl.yelpcdn.com/bphoto/5Ue1leVvopPIZPl90iVGWg/o.jpg", "is_closed": false, "url": "https://www.yelp.com/biz/yuan-bao-seattle?adjust_creative=pDRNOeZqz2kRCxLFBJobsA&utm_campaign=yelp_api_v3&utm_medium=api_v3_business_search&utm_source=pDRNOeZqz2kRCxLFBJobsA", "review_count": 10, "categories": [{"alias": "taiwanese", "title": "Taiwanese"}, {"alias": "bubbletea", "title": "Bubble Tea"}], "rating": 4.5, "coordinates": {"latitude": 47.721681, "longitude": -122.293441}, "transactions": ["delivery"], "location": {"address1": "12716 Lake City Way NE", "address2": "", "address3": null, "city": "Seattle", "zip_code": "98125", "country": "US", "state": "WA", "display_address": ["12716 Lake City Way NE", "Seattle, WA 98125"]}, "phone": "+12069466701", "display_phone": "(206) 946-6701", "distance": 11157.671091897651}, {"id": "7mDNz9pLMvjXP6XOt2gODA", "alias": "timeless-tea-seattle", "name": "Timeless Tea", "image_url": "https://s3-media2.fl.yelpcdn.com/bphoto/P4c4xl4x0DOR7YyA91DqNg/o.jpg", "is_closed": false, "url": "https://www.yelp.com/biz/timeless-tea-seattle?adjust_creative=pDRNOeZqz2kRCxLFBJobsA&utm_campaign=yelp_api_v3&utm_medium=api_v3_business_search&utm_source=pDRNOeZqz2kRCxLFBJobsA", "review_count": 11, "categories": [{"alias": "bubbletea", "title": "Bubble Tea"}], "rating": 4.0, "coordinates": {"latitude": 47.66533, "longitude": -122.3172011}, "transactions": [], "location": {"address1": "1000 NE 50th St", "address2": null, "address3": "", "city": "Seattle", "zip_code": "98105", "country": "US", "state": "WA", "display_address": ["1000 NE 50th St", "Seattle, WA 98105"]}, "phone": "+13608896666", "display_phone": "(360) 889-6666", "distance": 4645.017178007168}, {"id": "F5XwNjPQp_234lP986yeWg", "alias": "blackbird-seattle-bellevue-3", "name": "Blackbird Seattle", "image_url": "https://s3-media4.fl.yelpcdn.com/bphoto/5lbjcdlgvpXFrt6W0a1qrg/o.jpg", "is_closed": false, "url": "https://www.yelp.com/biz/blackbird-seattle-bellevue-3?adjust_creative=pDRNOeZqz2kRCxLFBJobsA&utm_campaign=yelp_api_v3&utm_medium=api_v3_business_search&utm_source=pDRNOeZqz2kRCxLFBJobsA", "review_count": 126, "categories": [{"alias": "desserts", "title": "Desserts"}, {"alias": "coffee", "title": "Coffee & Tea"}, {"alias": "bubbletea", "title": "Bubble Tea"}], "rating": 4.0, "coordinates": {"latitude": 47.62036, "longitude": -122.19322}, "transactions": ["pickup", "delivery"], "price": "$$", "location": {"address1": "11004 NE 11th St", "address2": "Ste 108", "address3": "", "city": "Bellevue", "zip_code": "98004", "country": "US", "state": "WA", "display_address": ["11004 NE 11th St", "Ste 108", "Bellevue, WA 98004"]}, "phone": "+14255982111", "display_phone": "(425) 598-2111", "distance": 10674.28434172254}, {"id": "WMlrglRqgn6u5x4H3quiag", "alias": "mr-wish-kirkland", "name": "Mr. Wish", "image_url": "https://s3-media1.fl.yelpcdn.com/bphoto/-gQUgwUZBfwIxqDYGJftFA/o.jpg", "is_closed": false, "url": "https://www.yelp.com/biz/mr-wish-kirkland?adjust_creative=pDRNOeZqz2kRCxLFBJobsA&utm_campaign=yelp_api_v3&utm_medium=api_v3_business_search&utm_source=pDRNOeZqz2kRCxLFBJobsA", "review_count": 16, "categories": [{"alias": "bubbletea", "title": "Bubble Tea"}, {"alias": "juicebars", "title": "Juice Bars & Smoothies"}], "rating": 4.5, "coordinates": {"latitude": 47.678521, "longitude": -122.201265}, "transactions": ["pickup", "delivery"], "price": "$", "location": {"address1": "320 4th St", "address2": "", "address3": "", "city": "Kirkland", "zip_code": "98033", "country": "US", "state": "WA", "display_address": ["320 4th St", "Kirkland, WA 98033"]}, "phone": "+14252027780", "display_phone": "(425) 202-7780", "distance": 11661.015577040016}, {"id": "aj8o1v1XjcbKF5hRCon13w", "alias": "coffee-tree-and-poke-seattle", "name": "Coffee Tree & Poke", "image_url": "https://s3-media2.fl.yelpcdn.com/bphoto/XDrvFqz12xOwQGds4vVikg/o.jpg", "is_closed": false, "url": "https://www.yelp.com/biz/coffee-tree-and-poke-seattle?adjust_creative=pDRNOeZqz2kRCxLFBJobsA&utm_campaign=yelp_api_v3&utm_medium=api_v3_business_search&utm_source=pDRNOeZqz2kRCxLFBJobsA", "review_count": 116, "categories": [{"alias": "poke", "title": "Poke"}, {"alias": "bubbletea", "title": "Bubble Tea"}, {"alias": "coffee", "title": "Coffee & Tea"}], "rating": 4.5, "coordinates": {"latitude": 47.6058616638184, "longitude": -122.325469970703}, "transactions": ["pickup", "delivery"], "price": "$$", "location": {"address1": "613 9th Ave", "address2": null, "address3": "", "city": "Seattle", "zip_code": "98104", "country": "US", "state": "WA", "display_address": ["613 9th Ave", "Seattle, WA 98104"]}, "phone": "+12069923947", "display_phone": "(206) 992-3947", "distance": 2296.0417510392567}, {"id": "uf0F97LL1Pju0Cc6_qQe8A", "alias": "chatime-mlk-seattle", "name": "Chatime MLK", "image_url": "https://s3-media1.fl.yelpcdn.com/bphoto/jv8SohqyEc7g0BKyL8YgEA/o.jpg", "is_closed": false, "url": "https://www.yelp.com/biz/chatime-mlk-seattle?adjust_creative=pDRNOeZqz2kRCxLFBJobsA&utm_campaign=yelp_api_v3&utm_medium=api_v3_business_search&utm_source=pDRNOeZqz2kRCxLFBJobsA", "review_count": 105, "categories": [{"alias": "bubbletea", "title": "Bubble Tea"}, {"alias": "coffee", "title": "Coffee & Tea"}, {"alias": "juicebars", "title": "Juice Bars & Smoothies"}], "rating": 3.5, "coordinates": {"latitude": 47.546908418106, "longitude": -122.286118931612}, "transactions": ["delivery"], "price": "$", "location": {"address1": "6014 Martin Luther King Jr Way S", "address2": "", "address3": null, "city": "Seattle", "zip_code": "98118", "country": "US", "state": "WA", "display_address": ["6014 Martin Luther King Jr Way S", "Seattle, WA 98118"]}, "phone": "+12064662791", "display_phone": "(206) 466-2791", "distance": 9483.363359006918}, {"id": "hM03ua-PXyjifojJQUAqNw", "alias": "pearls-tea-and-cafe-seattle", "name": "Pearls Tea & Cafe", "image_url": "https://s3-media1.fl.yelpcdn.com/bphoto/vJedfaNRpfTUL8ftdT-UDQ/o.jpg", "is_closed": false, "url": "https://www.yelp.com/biz/pearls-tea-and-cafe-seattle?adjust_creative=pDRNOeZqz2kRCxLFBJobsA&utm_campaign=yelp_api_v3&utm_medium=api_v3_business_search&utm_source=pDRNOeZqz2kRCxLFBJobsA", "review_count": 201, "categories": [{"alias": "coffee", "title": "Coffee & Tea"}, {"alias": "sandwiches", "title": "Sandwiches"}, {"alias": "bubbletea", "title": "Bubble Tea"}], "rating": 4.0, "coordinates": {"latitude": 47.55914, "longitude": -122.36263}, "transactions": ["pickup", "delivery"], "price": "$", "location": {"address1": "4800 Delridge Way SW", "address2": "", "address3": "", "city": "Seattle", "zip_code": "98106", "country": "US", "state": "WA", "display_address": ["4800 Delridge Way SW", "Seattle, WA 98106"]}, "phone": "+12069376036", "display_phone": "(206) 937-6036", "distance": 7643.502097837889}, {"id": "cqUexiCn9hQ-1L4SPnFNFw", "alias": "maichilin-bellevue", "name": "Maichilin", "image_url": "https://s3-media4.fl.yelpcdn.com/bphoto/wubUVEzCr1fq2cu4Kcs8Jw/o.jpg", "is_closed": false, "url": "https://www.yelp.com/biz/maichilin-bellevue?adjust_creative=pDRNOeZqz2kRCxLFBJobsA&utm_campaign=yelp_api_v3&utm_medium=api_v3_business_search&utm_source=pDRNOeZqz2kRCxLFBJobsA", "review_count": 21, "categories": [{"alias": "hkcafe", "title": "Hong Kong Style Cafe"}, {"alias": "bubbletea", "title": "Bubble Tea"}], "rating": 4.0, "coordinates": {"latitude": 47.6269119405, "longitude": -122.144828567}, "transactions": [], "location": {"address1": "14603 NE 20th St", "address2": "Ste C-06", "address3": "", "city": "Bellevue", "zip_code": "98007", "country": "US", "state": "WA", "display_address": ["14603 NE 20th St", "Ste C-06", "Bellevue, WA 98007"]}, "phone": "+14254490364", "display_phone": "(425) 449-0364", "distance": 14290.9159844814}, {"id": "wI2A_94uYykK94Ec7OlT2g", "alias": "jewel-box-caf\u00e9-seattle-4", "name": "Jewel Box Caf\u00e9", "image_url": "https://s3-media2.fl.yelpcdn.com/bphoto/iAy_ut5OPN6qUTF193FIwQ/o.jpg", "is_closed": false, "url": "https://www.yelp.com/biz/jewel-box-caf%C3%A9-seattle-4?adjust_creative=pDRNOeZqz2kRCxLFBJobsA&utm_campaign=yelp_api_v3&utm_medium=api_v3_business_search&utm_source=pDRNOeZqz2kRCxLFBJobsA", "review_count": 811, "categories": [{"alias": "coffee", "title": "Coffee & Tea"}, {"alias": "cafes", "title": "Cafes"}, {"alias": "bubbletea", "title": "Bubble Tea"}], "rating": 3.5, "coordinates": {"latitude": 47.7024404587866, "longitude": -122.324872554823}, "transactions": ["pickup", "delivery"], "price": "$", "location": {"address1": "321 NE Thornton Pl", "address2": "", "address3": "", "city": "Seattle", "zip_code": "98125", "country": "US", "state": "WA", "display_address": ["321 NE Thornton Pl", "Seattle, WA 98125"]}, "phone": "+12064329341", "display_phone": "(206) 432-9341", "distance": 8601.350596350678}, {"id": "XFdVAtULiJN41yedlMkVcQ", "alias": "bobae-coffee-and-tea-woodinville", "name": "Bobae Coffee & Tea", "image_url": "https://s3-media2.fl.yelpcdn.com/bphoto/5pCYFt5pTNCblBc_spu86A/o.jpg", "is_closed": false, "url": "https://www.yelp.com/biz/bobae-coffee-and-tea-woodinville?adjust_creative=pDRNOeZqz2kRCxLFBJobsA&utm_campaign=yelp_api_v3&utm_medium=api_v3_business_search&utm_source=pDRNOeZqz2kRCxLFBJobsA", "review_count": 140, "categories": [{"alias": "coffee", "title": "Coffee & Tea"}, {"alias": "bubbletea", "title": "Bubble Tea"}, {"alias": "juicebars", "title": "Juice Bars & Smoothies"}], "rating": 4.5, "coordinates": {"latitude": 47.7534, "longitude": -122.15182}, "transactions": ["delivery"], "location": {"address1": "14015 NE Woodinville Duvall Rd", "address2": null, "address3": "", "city": "Woodinville", "zip_code": "98072", "country": "US", "state": "WA", "display_address": ["14015 NE Woodinville Duvall Rd", "Woodinville, WA 98072"]}, "phone": "+14258889666", "display_phone": "(425) 888-9666", "distance": 19852.15200014564}, {"id": "XyeRCD7AAkwzPL8stT_Law", "alias": "mee-sum-seattle-2", "name": "Mee Sum", "image_url": "https://s3-media1.fl.yelpcdn.com/bphoto/1a6vnDuVfa8ClUWud-iDSg/o.jpg", "is_closed": false, "url": "https://www.yelp.com/biz/mee-sum-seattle-2?adjust_creative=pDRNOeZqz2kRCxLFBJobsA&utm_campaign=yelp_api_v3&utm_medium=api_v3_business_search&utm_source=pDRNOeZqz2kRCxLFBJobsA", "review_count": 395, "categories": [{"alias": "chinese", "title": "Chinese"}, {"alias": "bakeries", "title": "Bakeries"}, {"alias": "bubbletea", "title": "Bubble Tea"}], "rating": 3.5, "coordinates": {"latitude": 47.66105, "longitude": -122.313376}, "transactions": ["pickup", "delivery"], "price": "$$", "location": {"address1": "4343 University Way NE", "address2": "", "address3": "", "city": "Seattle", "zip_code": "98105", "country": "US", "state": "WA", "display_address": ["4343 University Way NE", "Seattle, WA 98105"]}, "phone": "+12066327298", "display_phone": "(206) 632-7298", "distance": 4294.995676910948}, {"id": "CLMT6xTZ8jpot28Tl3XwOg", "alias": "sharetea-bellevue", "name": "Sharetea", "image_url": "https://s3-media1.fl.yelpcdn.com/bphoto/616iqC7Bd40Ymhsj873xHw/o.jpg", "is_closed": false, "url": "https://www.yelp.com/biz/sharetea-bellevue?adjust_creative=pDRNOeZqz2kRCxLFBJobsA&utm_campaign=yelp_api_v3&utm_medium=api_v3_business_search&utm_source=pDRNOeZqz2kRCxLFBJobsA", "review_count": 148, "categories": [{"alias": "bubbletea", "title": "Bubble Tea"}, {"alias": "coffee", "title": "Coffee & Tea"}, {"alias": "juicebars", "title": "Juice Bars & Smoothies"}], "rating": 4.0, "coordinates": {"latitude": 47.62042, "longitude": -122.19332}, "transactions": ["pickup", "delivery"], "price": "$", "location": {"address1": "1112 110th Ave NE", "address2": "Ste 107", "address3": null, "city": "Bellevue", "zip_code": "98004", "country": "US", "state": "WA", "display_address": ["1112 110th Ave NE", "Ste 107", "Bellevue, WA 98004"]}, "phone": "+14254433138", "display_phone": "(425) 443-3138", "distance": 10662.78924661439}, {"id": "LYIXSfOyLiyQ1PZxP3XM0g", "alias": "unwind-cafe-seattle-5", "name": "Unwind Cafe", "image_url": "https://s3-media2.fl.yelpcdn.com/bphoto/56ubsYPEM5Yvur6vx1MqKQ/o.jpg", "is_closed": false, "url": "https://www.yelp.com/biz/unwind-cafe-seattle-5?adjust_creative=pDRNOeZqz2kRCxLFBJobsA&utm_campaign=yelp_api_v3&utm_medium=api_v3_business_search&utm_source=pDRNOeZqz2kRCxLFBJobsA", "review_count": 9, "categories": [{"alias": "coffee", "title": "Coffee & Tea"}, {"alias": "bubbletea", "title": "Bubble Tea"}, {"alias": "juicebars", "title": "Juice Bars & Smoothies"}], "rating": 5.0, "coordinates": {"latitude": 47.589189, "longitude": -122.38146}, "transactions": ["pickup", "delivery"], "location": {"address1": "1619 Harbor Ave SW", "address2": null, "address3": "", "city": "Seattle", "zip_code": "98126", "country": "US", "state": "WA", "display_address": ["1619 Harbor Ave SW", "Seattle, WA 98126"]}, "phone": "+12063500987", "display_phone": "(206) 350-0987", "distance": 5300.573396829604}, {"id": "5XwHWgN90kae2IeTe7eXOQ", "alias": "beetle-cafe-seattle-4", "name": "Beetle Cafe", "image_url": "https://s3-media1.fl.yelpcdn.com/bphoto/fCk4vAb_rBOcLlkO3kTM1w/o.jpg", "is_closed": false, "url": "https://www.yelp.com/biz/beetle-cafe-seattle-4?adjust_creative=pDRNOeZqz2kRCxLFBJobsA&utm_campaign=yelp_api_v3&utm_medium=api_v3_business_search&utm_source=pDRNOeZqz2kRCxLFBJobsA", "review_count": 113, "categories": [{"alias": "asianfusion", "title": "Asian Fusion"}, {"alias": "indonesian", "title": "Indonesian"}, {"alias": "bubbletea", "title": "Bubble Tea"}], "rating": 4.0, "coordinates": {"latitude": 47.6608, "longitude": -122.31283}, "transactions": ["pickup", "delivery"], "price": "$", "location": {"address1": "4334 University Way NE", "address2": null, "address3": "", "city": "Seattle", "zip_code": "98105", "country": "US", "state": "WA", "display_address": ["4334 University Way NE", "Seattle, WA 98105"]}, "phone": "+12065470977", "display_phone": "(206) 547-0977", "distance": 4281.842793869989}, {"id": "X0DkXqaRwCvq1pAqVwDXbQ", "alias": "nana-s-green-tea-seattle", "name": "Nana\u2019s Green Tea", "image_url": "https://s3-media1.fl.yelpcdn.com/bphoto/No9h-SPMwg4jc6KFGLTTow/o.jpg", "is_closed": false, "url": "https://www.yelp.com/biz/nana-s-green-tea-seattle?adjust_creative=pDRNOeZqz2kRCxLFBJobsA&utm_campaign=yelp_api_v3&utm_medium=api_v3_business_search&utm_source=pDRNOeZqz2kRCxLFBJobsA", "review_count": 744, "categories": [{"alias": "japanese", "title": "Japanese"}, {"alias": "desserts", "title": "Desserts"}, {"alias": "cafes", "title": "Cafes"}], "rating": 4.0, "coordinates": {"latitude": 47.61638, "longitude": -122.33312}, "transactions": ["pickup", "delivery"], "price": "$$", "location": {"address1": "1007 Stewart St", "address2": "Ste 103", "address3": null, "city": "Seattle", "zip_code": "98101", "country": "US", "state": "WA", "display_address": ["1007 Stewart St", "Ste 103", "Seattle, WA 98101"]}, "phone": "+12067856477", "display_phone": "(206) 785-6477", "distance": 1025.7953410768682}, {"id": "O3BvKUxzp7N_08p5HQiW5A", "alias": "blank-space-cafe-seattle-seattle", "name": "Blank Space Cafe - Seattle", "image_url": "https://s3-media3.fl.yelpcdn.com/bphoto/mlFWVxz5TshXkGStcgigIA/o.jpg", "is_closed": false, "url": "https://www.yelp.com/biz/blank-space-cafe-seattle-seattle?adjust_creative=pDRNOeZqz2kRCxLFBJobsA&utm_campaign=yelp_api_v3&utm_medium=api_v3_business_search&utm_source=pDRNOeZqz2kRCxLFBJobsA", "review_count": 175, "categories": [{"alias": "desserts", "title": "Desserts"}, {"alias": "bubbletea", "title": "Bubble Tea"}, {"alias": "macarons", "title": "Macarons"}], "rating": 3.0, "coordinates": {"latitude": 47.6131993274362, "longitude": -122.344044940179}, "transactions": ["pickup", "delivery"], "price": "$", "location": {"address1": "2126 2nd Ave", "address2": "", "address3": null, "city": "Seattle", "zip_code": "98121", "country": "US", "state": "WA", "display_address": ["2126 2nd Ave", "Seattle, WA 98121"]}, "phone": "+12064482617", "display_phone": "(206) 448-2617", "distance": 1501.8160936810452}, {"id": "gMtd8zWdeVDHHn7EniAhmA", "alias": "chatime-seattle", "name": "Chatime", "image_url": "https://s3-media4.fl.yelpcdn.com/bphoto/Rb262yirrcTB1b75rgyDMw/o.jpg", "is_closed": false, "url": "https://www.yelp.com/biz/chatime-seattle?adjust_creative=pDRNOeZqz2kRCxLFBJobsA&utm_campaign=yelp_api_v3&utm_medium=api_v3_business_search&utm_source=pDRNOeZqz2kRCxLFBJobsA", "review_count": 84, "categories": [{"alias": "bubbletea", "title": "Bubble Tea"}, {"alias": "coffee", "title": "Coffee & Tea"}, {"alias": "juicebars", "title": "Juice Bars & Smoothies"}], "rating": 3.5, "coordinates": {"latitude": 47.66325, "longitude": -122.31452}, "transactions": ["delivery"], "price": "$", "location": {"address1": "4701 Brooklyn Ave NE", "address2": "", "address3": null, "city": "Seattle", "zip_code": "98105", "country": "US", "state": "WA", "display_address": ["4701 Brooklyn Ave NE", "Seattle, WA 98105"]}, "phone": "+12068586906", "display_phone": "(206) 858-6906", "distance": 4493.511452650789}, {"id": "iteC8OTWcpOLUmVMaAP59A", "alias": "che-dessert-seattle", "name": "Che Dessert", "image_url": "https://s3-media2.fl.yelpcdn.com/bphoto/MucRGnutWGXtLTzH7Ge1_g/o.jpg", "is_closed": false, "url": "https://www.yelp.com/biz/che-dessert-seattle?adjust_creative=pDRNOeZqz2kRCxLFBJobsA&utm_campaign=yelp_api_v3&utm_medium=api_v3_business_search&utm_source=pDRNOeZqz2kRCxLFBJobsA", "review_count": 146, "categories": [{"alias": "coffee", "title": "Coffee & Tea"}, {"alias": "desserts", "title": "Desserts"}, {"alias": "juicebars", "title": "Juice Bars & Smoothies"}], "rating": 4.5, "coordinates": {"latitude": 47.5384912128834, "longitude": -122.282411780895}, "transactions": ["delivery"], "price": "$", "location": {"address1": "7101 Martin Luther King Jr Way S", "address2": "Ste 102", "address3": "", "city": "Seattle", "zip_code": "98118", "country": "US", "state": "WA", "display_address": ["7101 Martin Luther King Jr Way S", "Ste 102", "Seattle, WA 98118"]}, "phone": "+12069466570", "display_phone": "(206) 946-6570", "distance": 10454.256415201111}, {"id": "_DMmc-dEB1qJrj48M3-KpA", "alias": "oh-bear-caf\u00e9-and-teahouse-seattle", "name": "Oh Bear Caf\u00e9 & Teahouse", "image_url": "https://s3-media3.fl.yelpcdn.com/bphoto/iYa1RTZg8z78ZoVEFoAeuQ/o.jpg", "is_closed": false, "url": "https://www.yelp.com/biz/oh-bear-caf%C3%A9-and-teahouse-seattle?adjust_creative=pDRNOeZqz2kRCxLFBJobsA&utm_campaign=yelp_api_v3&utm_medium=api_v3_business_search&utm_source=pDRNOeZqz2kRCxLFBJobsA", "review_count": 55, "categories": [{"alias": "coffee", "title": "Coffee & Tea"}, {"alias": "bakeries", "title": "Bakeries"}, {"alias": "bubbletea", "title": "Bubble Tea"}], "rating": 5.0, "coordinates": {"latitude": 47.6635, "longitude": -122.31609}, "transactions": ["delivery"], "price": "$", "location": {"address1": "4708 11th Ave NE", "address2": null, "address3": null, "city": "Seattle", "zip_code": "98105", "country": "US", "state": "WA", "display_address": ["4708 11th Ave NE", "Seattle, WA 98105"]}, "phone": "+12068233688", "display_phone": "(206) 823-3688", "distance": 4461.92601388734}], "total": 467, "region": {"center": {"longitude": -122.33551025390625, "latitude": 47.62541904760501}}}